{"type": "FeatureCollection", "name": "stations-wa-styled", "crs": "urn:ogc:def:crs:OGC:1.3:CRS84", "features": [
{"type": "Feature", "properties": {"id": 45491, "stid": "USGSHY608", "name": "NASELLE RIVER NEAR NASELLE, WA", "start_datetime": "2015-04-30T23:11:00Z", "end_datetime": "2026-01-27T15:15:00Z", "elevation": 24.0, "station_info": "https://explore.synopticdata.com/USGSHY608/metadata", "marker-color": "#00FFFF", "marker-size": "small", "marker-symbol": "waterfall"}, "geometry": {"type": "Point", "coordinates": [-123.743482, 46.373994]}},
{"type": "Feature", "properties": {"id": 45492, "stid": "USGSHY609", "name": "CHEHALIS RIVER NEAR ADNA, WA", "start_datetime": "2015-04-30T23:11:00Z", "end_datetime": "2026-01-27T15:00:00Z", "elevation": 223.1, "station_info": "https://explore.synopticdata.com/USGSHY609/metadata", "marker-color": "#00FFFF", "marker-size": "small", "marker-symbol": "waterfall"}, "geometry": {"type": "Point", "coordinates": [-123.101801, 46.625658]}},
{"type": "Feature", "properties": {"id": 45495, "stid": "USGSHY612", "name": "NOOKSACK RIVER AT FERNDALE, WA", "start_datetime": "2015-04-30T23:11:00Z", "end_datetime": "2026-01-27T15:15:00Z", "elevation": 4.61, "station_info": "https://explore.synopticdata.com/USGSHY612/metadata", "marker-color": "#00FFFF", "marker-size": "small", "marker-symbol": "waterfall"}, "geometry": {"type": "Point", "coordinates": [-122.58931, 48.84479]}},
{"type": "Feature", "properties": {"id": 45497, "stid": "USGSHY614", "name": "SPEELYAI CREEK NEAR COUGAR, WA", "start_datetime": "2015-04-30T23:11:00Z", "end_datetime": "2026-01-27T15:15:00Z", "elevation": 500.0, "station_info": "https://explore.synopticdata.com/USGSHY614/metadata", "marker-color": "#00FFFF", "marker-size": "small", "marker-symbol": "waterfall"}, "geometry": {"type": "Point", "coordinates": [-122.344264, 46.004555]}},
{"type": "Feature", "properties": {"id": 45498, "stid": "USGSHY615", "name": "PEND OREILLE RIVER BELOW BOX CANYON NEAR IONE, WA", "start_datetime": "2015-04-30T23:11:00Z", "end_datetime": "2026-01-27T15:00:00Z", "elevation": 2011.2, "station_info": "https://explore.synopticdata.com/USGSHY615/metadata", "marker-color": "#00FFFF", "marker-size": "small", "marker-symbol": "waterfall"}, "geometry": {"type": "Point", "coordinates": [-117.41637, 48.78096]}},
{"type": "Feature", "properties": {"id": 45501, "stid": "USGSHY618", "name": "CEDAR RIVER AT POWERPLANT AT CEDAR FALLS, WA", "start_datetime": "2015-04-30T23:11:00Z", "end_datetime": "2026-01-27T15:45:00Z", "elevation": 900.0, "station_info": "https://explore.synopticdata.com/USGSHY618/metadata", "marker-color": "#00FFFF", "marker-size": "small", "marker-symbol": "waterfall"}, "geometry": {"type": "Point", "coordinates": [-121.781498, 47.418714]}},
{"type": "Feature", "properties": {"id": 45502, "stid": "USGSHY619", "name": "LAKE TAPPS DIVERSION AT DIERINGER, WA", "start_datetime": "2015-04-30T23:11:00Z", "end_datetime": "2026-01-27T15:45:00Z", "elevation": 42.36, "station_info": "https://explore.synopticdata.com/USGSHY619/metadata", "marker-color": "#00FFFF", "marker-size": "small", "marker-symbol": "waterfall"}, "geometry": {"type": "Point", "coordinates": [-122.228175, 47.238156]}},
{"type": "Feature", "properties": {"id": 45503, "stid": "USGSHY620", "name": "METHOW RIVER NEAR PATEROS, WA", "start_datetime": "2015-04-30T23:04:00Z", "end_datetime": "2026-01-27T15:15:00Z", "elevation": 900.0, "station_info": "https://explore.synopticdata.com/USGSHY620/metadata", "marker-color": "#00FFFF", "marker-size": "small", "marker-symbol": "waterfall"}, "geometry": {"type": "Point", "coordinates": [-119.985072, 48.077364]}},
{"type": "Feature", "properties": {"id": 45504, "stid": "USGSHY621", "name": "NF SKOKOMISH R BL STAIRCASE RPDS NR HOODSPORT, WA", "start_datetime": "2015-04-30T23:11:00Z", "end_datetime": "2026-01-27T15:15:00Z", "elevation": 762.26, "station_info": "https://explore.synopticdata.com/USGSHY621/metadata", "marker-color": "#00FFFF", "marker-size": "small", "marker-symbol": "waterfall"}, "geometry": {"type": "Point", "coordinates": [-123.329887, 47.514257]}},
{"type": "Feature", "properties": {"id": 45506, "stid": "USGSHY623", "name": "DUWAMISH RIVER AT GOLF COURSE AT TUKWILA, WA", "start_datetime": "2015-04-30T23:11:00Z", "end_datetime": "2026-01-27T15:45:00Z", "elevation": 19.7, "station_info": "https://explore.synopticdata.com/USGSHY623/metadata", "marker-color": "#00FFFF", "marker-size": "small", "marker-symbol": "waterfall"}, "geometry": {"type": "Point", "coordinates": [-122.258733, 47.478986]}},
{"type": "Feature", "properties": {"id": 45508, "stid": "USGSHY625", "name": "OLSEN CREEK NEAR BELLINGHAM, WA", "start_datetime": "2015-04-30T23:11:00Z", "end_datetime": "2026-01-27T14:00:00Z", "elevation": 315.0, "station_info": "https://explore.synopticdata.com/USGSHY625/metadata", "marker-color": "#00FFFF", "marker-size": "small", "marker-symbol": "waterfall"}, "geometry": {"type": "Point", "coordinates": [-122.353498, 48.751222]}},
{"type": "Feature", "properties": {"id": 45509, "stid": "USGSHY626", "name": "WEST FORK SALMON CREEK NEAR CONCONULLY, WA", "start_datetime": "2015-04-30T23:11:00Z", "end_datetime": "2026-01-27T15:15:00Z", "elevation": 2287.0, "station_info": "https://explore.synopticdata.com/USGSHY626/metadata", "marker-color": "#00FFFF", "marker-size": "small", "marker-symbol": "waterfall"}, "geometry": {"type": "Point", "coordinates": [-119.76422, 48.54093]}},
{"type": "Feature", "properties": {"id": 45510, "stid": "USGSHY627", "name": "COLVILLE RIVER AT KETTLE FALLS, WA", "start_datetime": "2015-04-30T23:04:00Z", "end_datetime": "2026-01-27T15:20:00Z", "elevation": 1400.0, "station_info": "https://explore.synopticdata.com/USGSHY627/metadata", "marker-color": "#00FFFF", "marker-size": "small", "marker-symbol": "waterfall"}, "geometry": {"type": "Point", "coordinates": [-118.062489, 48.594346]}},
{"type": "Feature", "properties": {"id": 45511, "stid": "USGSHY628", "name": "ISSAQUAH CREEK NEAR HOBART, WA", "start_datetime": "2015-04-30T23:11:00Z", "end_datetime": "2026-01-27T15:45:00Z", "elevation": 300.0, "station_info": "https://explore.synopticdata.com/USGSHY628/metadata", "marker-color": "#00FFFF", "marker-size": "small", "marker-symbol": "waterfall"}, "geometry": {"type": "Point", "coordinates": [-122.0051, 47.4573]}},
{"type": "Feature", "properties": {"id": 45512, "stid": "USGSHY629", "name": "KETTLE RIVER NEAR FERRY, WA", "start_datetime": "2015-04-30T23:04:00Z", "end_datetime": "2026-01-27T15:15:00Z", "elevation": 1836.8, "station_info": "https://explore.synopticdata.com/USGSHY629/metadata", "marker-color": "#00FFFF", "marker-size": "small", "marker-symbol": "waterfall"}, "geometry": {"type": "Point", "coordinates": [-118.766426, 48.981284]}},
{"type": "Feature", "properties": {"id": 45513, "stid": "USGSHY630", "name": "ISSAQUAH CREEK NEAR MOUTH NEAR ISSAQUAH, WA", "start_datetime": "2015-04-30T23:04:00Z", "end_datetime": "2026-01-27T15:15:00Z", "elevation": 35.99, "station_info": "https://explore.synopticdata.com/USGSHY630/metadata", "marker-color": "#00FFFF", "marker-size": "small", "marker-symbol": "waterfall"}, "geometry": {"type": "Point", "coordinates": [-122.04788, 47.5523]}},
{"type": "Feature", "properties": {"id": 45514, "stid": "USGSHY631", "name": "LOUP LOUP CREEK AT MALOTT, WA", "start_datetime": "2015-04-30T23:11:00Z", "end_datetime": "2026-01-27T15:00:00Z", "elevation": 818.0, "station_info": "https://explore.synopticdata.com/USGSHY631/metadata", "marker-color": "#00FFFF", "marker-size": "small", "marker-symbol": "waterfall"}, "geometry": {"type": "Point", "coordinates": [-119.70838, 48.28315]}},
{"type": "Feature", "properties": {"id": 45515, "stid": "USGSHY632", "name": "RAGING RIVER NEAR FALL CITY, WA", "start_datetime": "2015-04-30T23:11:00Z", "end_datetime": "2026-01-27T15:15:00Z", "elevation": 250.0, "station_info": "https://explore.synopticdata.com/USGSHY632/metadata", "marker-color": "#00FFFF", "marker-size": "small", "marker-symbol": "waterfall"}, "geometry": {"type": "Point", "coordinates": [-121.909005, 47.539824]}},
{"type": "Feature", "properties": {"id": 45516, "stid": "USGSHY633", "name": "SOUTH FORK TOLT RIVER NEAR INDEX, WA", "start_datetime": "2015-04-30T23:11:00Z", "end_datetime": "2026-01-27T15:15:00Z", "elevation": 1850.0, "station_info": "https://explore.synopticdata.com/USGSHY633/metadata", "marker-color": "#00FFFF", "marker-size": "small", "marker-symbol": "waterfall"}, "geometry": {"type": "Point", "coordinates": [-121.600107, 47.706771]}},
{"type": "Feature", "properties": {"id": 45519, "stid": "USGSHY636", "name": "ANDERSON CREEK NEAR BELLINGHAM, WA", "start_datetime": "2015-04-30T23:11:00Z", "end_datetime": "2026-01-27T14:00:00Z", "elevation": 315.0, "station_info": "https://explore.synopticdata.com/USGSHY636/metadata", "marker-color": "#00FFFF", "marker-size": "small", "marker-symbol": "waterfall"}, "geometry": {"type": "Point", "coordinates": [-122.267382, 48.673722]}},
{"type": "Feature", "properties": {"id": 45520, "stid": "USGSHY637", "name": "SAUK RIVER AB WHITE CHUCK RIVER NR  DARRINGTON, WA", "start_datetime": "2015-04-30T23:04:00Z", "end_datetime": "2026-01-27T15:00:00Z", "elevation": 930.0, "station_info": "https://explore.synopticdata.com/USGSHY637/metadata", "marker-color": "#00FFFF", "marker-size": "small", "marker-symbol": "waterfall"}, "geometry": {"type": "Point", "coordinates": [-121.47065, 48.16869]}},
{"type": "Feature", "properties": {"id": 45521, "stid": "USGSHY638", "name": "BAKER RIVER AB BLUM CREEK NEAR CONCRETE, WA", "start_datetime": "2015-04-30T23:11:00Z", "end_datetime": "2026-01-27T15:00:00Z", "elevation": 839.9, "station_info": "https://explore.synopticdata.com/USGSHY638/metadata", "marker-color": "#00FFFF", "marker-size": "small", "marker-symbol": "waterfall"}, "geometry": {"type": "Point", "coordinates": [-121.54706, 48.75397]}},
{"type": "Feature", "properties": {"id": 45522, "stid": "USGSHY639", "name": "EAST FORK TULALIP CREEK NEAR MOUTH NR TULALIP, WA", "start_datetime": "2015-05-21T22:02:00Z", "end_datetime": "2026-01-27T15:45:00Z", "elevation": 170.0, "station_info": "https://explore.synopticdata.com/USGSHY639/metadata", "marker-color": "#00FFFF", "marker-size": "small", "marker-symbol": "waterfall"}, "geometry": {"type": "Point", "coordinates": [-122.27818, 48.09479]}},
{"type": "Feature", "properties": {"id": 45523, "stid": "USGSHY640", "name": "NORTH FORK SALMON CREEK NEAR CONCONULLY, WA", "start_datetime": "2015-04-30T23:04:00Z", "end_datetime": "2026-01-27T15:15:00Z", "elevation": 2867.0, "station_info": "https://explore.synopticdata.com/USGSHY640/metadata", "marker-color": "#00FFFF", "marker-size": "small", "marker-symbol": "waterfall"}, "geometry": {"type": "Point", "coordinates": [-119.77394, 48.59621]}},
{"type": "Feature", "properties": {"id": 45524, "stid": "USGSHY641", "name": "YAKIMA RIVER AT KIONA, WA", "start_datetime": "2015-04-30T23:33:00Z", "end_datetime": "2026-01-27T15:15:00Z", "elevation": 454.41, "station_info": "https://explore.synopticdata.com/USGSHY641/metadata", "marker-color": "#00FFFF", "marker-size": "small", "marker-symbol": "waterfall"}, "geometry": {"type": "Point", "coordinates": [-119.478079, 46.253467]}},
{"type": "Feature", "properties": {"id": 45525, "stid": "USGSHY642", "name": "NORTH FORK SKOKOMISH RIVER NEAR POTLATCH, WA", "start_datetime": "2015-04-30T23:11:00Z", "end_datetime": "2026-01-27T15:15:00Z", "elevation": 63.49, "station_info": "https://explore.synopticdata.com/USGSHY642/metadata", "marker-color": "#00FFFF", "marker-size": "small", "marker-symbol": "waterfall"}, "geometry": {"type": "Point", "coordinates": [-123.24319, 47.32978]}},
{"type": "Feature", "properties": {"id": 45526, "stid": "USGSHY643", "name": "CEDAR RIVER AT RENTON, WA", "start_datetime": "2015-04-30T23:04:00Z", "end_datetime": "2026-01-27T15:00:00Z", "elevation": 15.2, "station_info": "https://explore.synopticdata.com/USGSHY643/metadata", "marker-color": "#00FFFF", "marker-size": "small", "marker-symbol": "waterfall"}, "geometry": {"type": "Point", "coordinates": [-122.203455, 47.4826]}},
{"type": "Feature", "properties": {"id": 45528, "stid": "USGSHY645", "name": "CHAMBERS CREEK BL LEACH CREEK NEAR STEILACOOM, WA", "start_datetime": "2015-08-11T22:15:00Z", "end_datetime": "2026-01-27T15:00:00Z", "elevation": 100.0, "station_info": "https://explore.synopticdata.com/USGSHY645/metadata", "marker-color": "#00FFFF", "marker-size": "small", "marker-symbol": "waterfall"}, "geometry": {"type": "Point", "coordinates": [-122.52872, 47.19757]}},
{"type": "Feature", "properties": {"id": 45531, "stid": "USGSHY648", "name": "SKOKOMISH RIVER NEAR POTLATCH, WA", "start_datetime": "2015-04-30T23:11:00Z", "end_datetime": "2026-01-27T15:15:00Z", "elevation": 10.67, "station_info": "https://explore.synopticdata.com/USGSHY648/metadata", "marker-color": "#00FFFF", "marker-size": "small", "marker-symbol": "waterfall"}, "geometry": {"type": "Point", "coordinates": [-123.177099, 47.309815]}},
{"type": "Feature", "properties": {"id": 45533, "stid": "USGSHY650", "name": "CALAWAH RIVER NEAR FORKS, WA", "start_datetime": "2015-04-30T23:11:00Z", "end_datetime": "2026-01-27T15:15:00Z", "elevation": 201.58, "station_info": "https://explore.synopticdata.com/USGSHY650/metadata", "marker-color": "#00FFFF", "marker-size": "small", "marker-symbol": "waterfall"}, "geometry": {"type": "Point", "coordinates": [-124.392987, 47.960077]}},
{"type": "Feature", "properties": {"id": 45534, "stid": "USGSHY651", "name": "WENATCHEE RIVER AT PLAIN, WA", "start_datetime": "2015-04-30T23:11:00Z", "end_datetime": "2026-01-27T15:15:00Z", "elevation": 1805.0, "station_info": "https://explore.synopticdata.com/USGSHY651/metadata", "marker-color": "#00FFFF", "marker-size": "small", "marker-symbol": "waterfall"}, "geometry": {"type": "Point", "coordinates": [-120.66617, 47.76287]}},
{"type": "Feature", "properties": {"id": 45535, "stid": "USGSHY652", "name": "OKANOGAN RIVER AT MALOTT, WA", "start_datetime": "2015-04-30T23:11:00Z", "end_datetime": "2026-01-27T15:45:00Z", "elevation": 783.55, "station_info": "https://explore.synopticdata.com/USGSHY652/metadata", "marker-color": "#00FFFF", "marker-size": "small", "marker-symbol": "waterfall"}, "geometry": {"type": "Point", "coordinates": [-119.704505, 48.281261]}},
{"type": "Feature", "properties": {"id": 45536, "stid": "USGSHY653", "name": "TSOO-YESS RIVER BLW MILLER CREEK NEAR OZETTE, WA", "start_datetime": "2015-04-30T23:11:00Z", "end_datetime": "2026-01-27T15:15:00Z", "elevation": 70.0, "station_info": "https://explore.synopticdata.com/USGSHY653/metadata", "marker-color": "#00FFFF", "marker-size": "small", "marker-symbol": "waterfall"}, "geometry": {"type": "Point", "coordinates": [-124.625792, 48.265343]}},
{"type": "Feature", "properties": {"id": 45538, "stid": "USGSHY655", "name": "SAMISH RIVER NEAR BURLINGTON, WA", "start_datetime": "2015-04-30T23:11:00Z", "end_datetime": "2026-01-27T15:45:00Z", "elevation": 45.0, "station_info": "https://explore.synopticdata.com/USGSHY655/metadata", "marker-color": "#00FFFF", "marker-size": "small", "marker-symbol": "waterfall"}, "geometry": {"type": "Point", "coordinates": [-122.338217, 48.545941]}},
{"type": "Feature", "properties": {"id": 45540, "stid": "USGSHY657", "name": "STEHEKIN RIVER AT STEHEKIN, WA", "start_datetime": "2015-04-30T23:11:00Z", "end_datetime": "2026-01-27T15:15:00Z", "elevation": 1098.5, "station_info": "https://explore.synopticdata.com/USGSHY657/metadata", "marker-color": "#00FFFF", "marker-size": "small", "marker-symbol": "waterfall"}, "geometry": {"type": "Point", "coordinates": [-120.691767, 48.32958]}},
{"type": "Feature", "properties": {"id": 45541, "stid": "USGSHY658", "name": "ENTIAT RIVER NEAR ENTIAT, WA", "start_datetime": "2015-04-30T23:04:00Z", "end_datetime": "2026-01-27T15:15:00Z", "elevation": 745.0, "station_info": "https://explore.synopticdata.com/USGSHY658/metadata", "marker-color": "#00FFFF", "marker-size": "small", "marker-symbol": "waterfall"}, "geometry": {"type": "Point", "coordinates": [-120.250634, 47.663185]}},
{"type": "Feature", "properties": {"id": 45542, "stid": "USGSHY659", "name": "HUCKLEBERRY CREEK NEAR GREENWATER, WA", "start_datetime": "2015-04-30T23:11:00Z", "end_datetime": "2026-01-27T15:00:00Z", "elevation": 2290.0, "station_info": "https://explore.synopticdata.com/USGSHY659/metadata", "marker-color": "#00FFFF", "marker-size": "small", "marker-symbol": "waterfall"}, "geometry": {"type": "Point", "coordinates": [-121.605652, 47.060386]}},
{"type": "Feature", "properties": {"id": 45543, "stid": "USGSHY660", "name": "LITTLE SPOKANE RIVER AT DARTFORD, WA", "start_datetime": "2015-04-30T23:11:00Z", "end_datetime": "2026-01-27T14:00:00Z", "elevation": 1585.62, "station_info": "https://explore.synopticdata.com/USGSHY660/metadata", "marker-color": "#00FFFF", "marker-size": "small", "marker-symbol": "waterfall"}, "geometry": {"type": "Point", "coordinates": [-117.404386, 47.784614]}},
{"type": "Feature", "properties": {"id": 45545, "stid": "USGSHY662", "name": "OKANOGAN RIVER NEAR TONASKET, WA", "start_datetime": "2015-04-30T23:04:00Z", "end_datetime": "2026-01-27T15:00:00Z", "elevation": 860.78, "station_info": "https://explore.synopticdata.com/USGSHY662/metadata", "marker-color": "#00FFFF", "marker-size": "small", "marker-symbol": "waterfall"}, "geometry": {"type": "Point", "coordinates": [-119.461723, 48.632375]}},
{"type": "Feature", "properties": {"id": 45546, "stid": "USGSHY663", "name": "BIG QUILCENE RIVER BELOW DIVERSION NR QUILCENE, WA", "start_datetime": "2015-04-30T23:11:00Z", "end_datetime": "2026-01-27T15:15:00Z", "elevation": 1009.23, "station_info": "https://explore.synopticdata.com/USGSHY663/metadata", "marker-color": "#00FFFF", "marker-size": "small", "marker-symbol": "waterfall"}, "geometry": {"type": "Point", "coordinates": [-122.97958, 47.78451]}},
{"type": "Feature", "properties": {"id": 45547, "stid": "USGSHY664", "name": "CENTRALIA POWER CANAL NEAR MCKENNA, WA", "start_datetime": "2015-04-30T23:11:00Z", "end_datetime": "2026-01-27T15:00:00Z", "elevation": 330.0, "station_info": "https://explore.synopticdata.com/USGSHY664/metadata", "marker-color": "#00FFFF", "marker-size": "small", "marker-symbol": "waterfall"}, "geometry": {"type": "Point", "coordinates": [-122.498453, 46.9001]}},
{"type": "Feature", "properties": {"id": 45549, "stid": "USGSHY666", "name": "TWISP RIVER NEAR TWISP, WA", "start_datetime": "2015-04-30T23:11:00Z", "end_datetime": "2026-01-27T15:15:00Z", "elevation": 1640.0, "station_info": "https://explore.synopticdata.com/USGSHY666/metadata", "marker-color": "#00FFFF", "marker-size": "small", "marker-symbol": "waterfall"}, "geometry": {"type": "Point", "coordinates": [-120.148693, 48.369867]}},
{"type": "Feature", "properties": {"id": 45550, "stid": "USGSHY667", "name": "NF SNOQUALMIE RIVER NEAR SNOQUALMIE FALLS, WA", "start_datetime": "2015-04-30T23:04:00Z", "end_datetime": "2026-01-27T15:00:00Z", "elevation": 1130.0, "station_info": "https://explore.synopticdata.com/USGSHY667/metadata", "marker-color": "#00FFFF", "marker-size": "small", "marker-symbol": "waterfall"}, "geometry": {"type": "Point", "coordinates": [-121.713444, 47.614825]}},
{"type": "Feature", "properties": {"id": 45551, "stid": "USGSHY668", "name": "COWLITZ RIVER AT RANDLE, WA", "start_datetime": "2015-04-30T23:11:00Z", "end_datetime": "2026-01-27T15:45:00Z", "elevation": 880.0, "station_info": "https://explore.synopticdata.com/USGSHY668/metadata", "marker-color": "#00FFFF", "marker-size": "small", "marker-symbol": "waterfall"}, "geometry": {"type": "Point", "coordinates": [-121.956944, 46.531944]}},
{"type": "Feature", "properties": {"id": 45553, "stid": "USGSHY670", "name": "CHEHALIS RIVER AT PORTER, WA", "start_datetime": "2015-04-30T23:11:00Z", "end_datetime": "2026-01-27T14:00:00Z", "elevation": 49.2, "station_info": "https://explore.synopticdata.com/USGSHY670/metadata", "marker-color": "#00FFFF", "marker-size": "small", "marker-symbol": "waterfall"}, "geometry": {"type": "Point", "coordinates": [-123.314319, 46.939264]}},
{"type": "Feature", "properties": {"id": 45554, "stid": "USGSHY671", "name": "WYNOOCHEE RIVER ABOVE BLACK CREEK NR MONTESANO, WA", "start_datetime": "2015-04-30T23:11:00Z", "end_datetime": "2026-01-27T15:45:00Z", "elevation": 23.0, "station_info": "https://explore.synopticdata.com/USGSHY671/metadata", "marker-color": "#00FFFF", "marker-size": "small", "marker-symbol": "waterfall"}, "geometry": {"type": "Point", "coordinates": [-123.655442, 47.011483]}},
{"type": "Feature", "properties": {"id": 45555, "stid": "USGSHY672", "name": "METHOW RIVER ABOVE GOAT CREEK NEAR MAZAMA, WA", "start_datetime": "2015-04-30T23:11:00Z", "end_datetime": "2026-01-27T15:15:00Z", "elevation": 2040.0, "station_info": "https://explore.synopticdata.com/USGSHY672/metadata", "marker-color": "#00FFFF", "marker-size": "small", "marker-symbol": "waterfall"}, "geometry": {"type": "Point", "coordinates": [-120.385861, 48.57425]}},
{"type": "Feature", "properties": {"id": 45556, "stid": "USGSHY673", "name": "SOUTH FORK TOLT RIVER NEAR CARNATION, WA", "start_datetime": "2015-04-30T23:11:00Z", "end_datetime": "2026-01-27T15:15:00Z", "elevation": 1300.0, "station_info": "https://explore.synopticdata.com/USGSHY673/metadata", "marker-color": "#00FFFF", "marker-size": "small", "marker-symbol": "waterfall"}, "geometry": {"type": "Point", "coordinates": [-121.713446, 47.689269]}},
{"type": "Feature", "properties": {"id": 45559, "stid": "USGSHY676", "name": "ESQUATZEL COULEE AT CONNELL, WA", "start_datetime": "2015-04-30T23:11:00Z", "end_datetime": "2026-01-10T23:30:00Z", "elevation": 820.0, "station_info": "https://explore.synopticdata.com/USGSHY676/metadata", "marker-color": "#00FFFF", "marker-size": "small", "marker-symbol": "waterfall"}, "geometry": {"type": "Point", "coordinates": [-118.863334, 46.663473]}},
{"type": "Feature", "properties": {"id": 45562, "stid": "USGSHY679", "name": "SOUTH FORK SKOKOMISH RIVER NEAR UNION, WA", "start_datetime": "2015-04-30T23:11:00Z", "end_datetime": "2026-01-27T15:45:00Z", "elevation": 103.35, "station_info": "https://explore.synopticdata.com/USGSHY679/metadata", "marker-color": "#00FFFF", "marker-size": "small", "marker-symbol": "waterfall"}, "geometry": {"type": "Point", "coordinates": [-123.280159, 47.340369]}},
{"type": "Feature", "properties": {"id": 45564, "stid": "USGSHY681", "name": "METHOW RIVER AT WINTHROP, WA", "start_datetime": "2015-04-30T23:04:00Z", "end_datetime": "2026-01-27T15:00:00Z", "elevation": 1718.09, "station_info": "https://explore.synopticdata.com/USGSHY681/metadata", "marker-color": "#00FFFF", "marker-size": "small", "marker-symbol": "waterfall"}, "geometry": {"type": "Point", "coordinates": [-120.177306, 48.473479]}},
{"type": "Feature", "properties": {"id": 45565, "stid": "USGSHY682", "name": "PUYALLUP RIVER NEAR ELECTRON, WA", "start_datetime": "2015-04-30T23:11:00Z", "end_datetime": "2026-01-27T15:15:00Z", "elevation": 1632.7, "station_info": "https://explore.synopticdata.com/USGSHY682/metadata", "marker-color": "#00FFFF", "marker-size": "small", "marker-symbol": "waterfall"}, "geometry": {"type": "Point", "coordinates": [-122.035109, 46.903716]}},
{"type": "Feature", "properties": {"id": 45566, "stid": "USGSHY683", "name": "NOOKSACK RIVER AT NORTH CEDARVILLE, WA", "start_datetime": "2015-04-30T23:04:00Z", "end_datetime": "2026-01-27T15:15:00Z", "elevation": 134.5, "station_info": "https://explore.synopticdata.com/USGSHY683/metadata", "marker-color": "#00FFFF", "marker-size": "small", "marker-symbol": "waterfall"}, "geometry": {"type": "Point", "coordinates": [-122.2943, 48.84174]}},
{"type": "Feature", "properties": {"id": 45567, "stid": "USGSHY684", "name": "LEACH CREEK NEAR FIRCREST, WA", "start_datetime": "2015-04-30T23:11:00Z", "end_datetime": "2026-01-27T14:00:00Z", "elevation": 222.98, "station_info": "https://explore.synopticdata.com/USGSHY684/metadata", "marker-color": "#00FFFF", "marker-size": "small", "marker-symbol": "waterfall"}, "geometry": {"type": "Point", "coordinates": [-122.50927, 47.22146]}},
{"type": "Feature", "properties": {"id": 45569, "stid": "USGSHY686", "name": "ROCK CREEK AT HIGHWAY 516 NEAR RAVENSDALE, WA", "start_datetime": "2015-04-30T23:11:00Z", "end_datetime": "2026-01-27T15:45:00Z", "elevation": 559.24, "station_info": "https://explore.synopticdata.com/USGSHY686/metadata", "marker-color": "#00FFFF", "marker-size": "small", "marker-symbol": "waterfall"}, "geometry": {"type": "Point", "coordinates": [-122.010948, 47.362323]}},
{"type": "Feature", "properties": {"id": 45570, "stid": "USGSHY687", "name": "SAUK RIVER NEAR SAUK, WA", "start_datetime": "2015-04-30T23:11:00Z", "end_datetime": "2026-01-27T15:45:00Z", "elevation": 266.0, "station_info": "https://explore.synopticdata.com/USGSHY687/metadata", "marker-color": "#00FFFF", "marker-size": "small", "marker-symbol": "waterfall"}, "geometry": {"type": "Point", "coordinates": [-121.568463, 48.424559]}},
{"type": "Feature", "properties": {"id": 45571, "stid": "USGSHY688", "name": "EUCLID CR AT EUCLID AVE AT BELLINGHAM, WA", "start_datetime": "2015-09-05T15:15:00Z", "end_datetime": "2026-01-27T15:45:00Z", "elevation": 320.0, "station_info": "https://explore.synopticdata.com/USGSHY688/metadata", "marker-color": "#00FFFF", "marker-size": "small", "marker-symbol": "waterfall"}, "geometry": {"type": "Point", "coordinates": [-122.409333, 48.748721]}},
{"type": "Feature", "properties": {"id": 45572, "stid": "USGSHY689", "name": "SOUTH FORK CHEHALIS RIVER NEAR WILDWOOD, WA", "start_datetime": "2015-04-30T23:04:00Z", "end_datetime": "2026-01-27T15:00:00Z", "elevation": 364.2, "station_info": "https://explore.synopticdata.com/USGSHY689/metadata", "marker-color": "#00FFFF", "marker-size": "small", "marker-symbol": "waterfall"}, "geometry": {"type": "Point", "coordinates": [-123.083738, 46.444828]}},
{"type": "Feature", "properties": {"id": 45574, "stid": "USGSHY691", "name": "WHITE RIVER NEAR BUCKLEY, WA", "start_datetime": "2015-04-30T23:11:00Z", "end_datetime": "2026-01-27T15:00:00Z", "elevation": 921.9, "station_info": "https://explore.synopticdata.com/USGSHY691/metadata", "marker-color": "#00FFFF", "marker-size": "small", "marker-symbol": "waterfall"}, "geometry": {"type": "Point", "coordinates": [-121.94981, 47.15119]}},
{"type": "Feature", "properties": {"id": 45576, "stid": "USGSHY693", "name": "NISQUALLY RIVER AT LA GRANDE DAM, WA", "start_datetime": "2015-04-30T23:11:00Z", "end_datetime": "2026-01-27T15:15:00Z", "elevation": 925.0, "station_info": "https://explore.synopticdata.com/USGSHY693/metadata", "marker-color": "#00FFFF", "marker-size": "small", "marker-symbol": "waterfall"}, "geometry": {"type": "Point", "coordinates": [-122.30428, 46.822604]}},
{"type": "Feature", "properties": {"id": 45577, "stid": "USGSHY694", "name": "CEDAR RIVER AT CEDAR FALLS, WA", "start_datetime": "2015-04-30T23:11:00Z", "end_datetime": "2026-01-27T15:00:00Z", "elevation": 902.1, "station_info": "https://explore.synopticdata.com/USGSHY694/metadata", "marker-color": "#00FFFF", "marker-size": "small", "marker-symbol": "waterfall"}, "geometry": {"type": "Point", "coordinates": [-121.79203, 47.41702]}},
{"type": "Feature", "properties": {"id": 45578, "stid": "USGSHY695", "name": "MIDDLE FORK SNOQUALMIE RIVER NEAR TANNER, WA", "start_datetime": "2015-04-30T23:04:00Z", "end_datetime": "2026-01-27T15:00:00Z", "elevation": 780.0, "station_info": "https://explore.synopticdata.com/USGSHY695/metadata", "marker-color": "#00FFFF", "marker-size": "small", "marker-symbol": "waterfall"}, "geometry": {"type": "Point", "coordinates": [-121.64786, 47.48591]}},
{"type": "Feature", "properties": {"id": 45580, "stid": "USGSHY697", "name": "GREEN RIVER AT PURIFICATION PLANT NEAR PALMER, WA", "start_datetime": "2015-04-30T23:11:00Z", "end_datetime": "2026-01-27T15:00:00Z", "elevation": 859.53, "station_info": "https://explore.synopticdata.com/USGSHY697/metadata", "marker-color": "#00FFFF", "marker-size": "small", "marker-symbol": "waterfall"}, "geometry": {"type": "Point", "coordinates": [-121.850665, 47.305103]}},
{"type": "Feature", "properties": {"id": 45583, "stid": "USGSHY700", "name": "NOOKSACK RIVER AT EVERSON, WA", "start_datetime": "2015-08-11T04:15:00Z", "end_datetime": "2026-01-27T15:00:00Z", "elevation": 78.7, "station_info": "https://explore.synopticdata.com/USGSHY700/metadata", "marker-color": "#00FFFF", "marker-size": "small", "marker-symbol": "waterfall"}, "geometry": {"type": "Point", "coordinates": [-122.347937, 48.917895]}},
{"type": "Feature", "properties": {"id": 45586, "stid": "USGSHY703", "name": "SANPOIL RIVER ABOVE JACK CREEK AT KELLER, WA", "start_datetime": "2015-04-30T23:11:00Z", "end_datetime": "2026-01-27T14:00:00Z", "elevation": 1400.0, "station_info": "https://explore.synopticdata.com/USGSHY703/metadata", "marker-color": "#00FFFF", "marker-size": "small", "marker-symbol": "waterfall"}, "geometry": {"type": "Point", "coordinates": [-118.691402, 48.084325]}},
{"type": "Feature", "properties": {"id": 45587, "stid": "USGSHY704", "name": "SOUTH FORK SULTAN RIVER NEAR SULTAN, WA", "start_datetime": "2015-04-30T23:11:00Z", "end_datetime": "2026-01-27T15:00:00Z", "elevation": 1475.0, "station_info": "https://explore.synopticdata.com/USGSHY704/metadata", "marker-color": "#00FFFF", "marker-size": "small", "marker-symbol": "waterfall"}, "geometry": {"type": "Point", "coordinates": [-121.626783, 47.947326]}},
{"type": "Feature", "properties": {"id": 45588, "stid": "USGSHY705", "name": "COLUMBIA RIVER AT VANCOUVER, WA", "start_datetime": "2015-05-01T00:45:00Z", "end_datetime": "2026-01-27T15:45:00Z", "elevation": 1.82, "station_info": "https://explore.synopticdata.com/USGSHY705/metadata", "marker-color": "#00FFFF", "marker-size": "small", "marker-symbol": "waterfall"}, "geometry": {"type": "Point", "coordinates": [-122.673431, 45.620673]}},
{"type": "Feature", "properties": {"id": 45591, "stid": "USGSHY708", "name": "LEACH CR AT MEADOW PARK GC AT UNIVERSITY PLACE, WA", "start_datetime": "2015-04-30T23:11:00Z", "end_datetime": "2026-01-27T15:15:00Z", "elevation": 160.0, "station_info": "https://explore.synopticdata.com/USGSHY708/metadata", "marker-color": "#00FFFF", "marker-size": "small", "marker-symbol": "waterfall"}, "geometry": {"type": "Point", "coordinates": [-122.520958, 47.198432]}},
{"type": "Feature", "properties": {"id": 45592, "stid": "USGSHY709", "name": "YAKIMA RIVER AT UMTANUM, WA", "start_datetime": "2015-04-30T23:04:00Z", "end_datetime": "2026-01-27T15:15:00Z", "elevation": 1300.0, "station_info": "https://explore.synopticdata.com/USGSHY709/metadata", "marker-color": "#00FFFF", "marker-size": "small", "marker-symbol": "waterfall"}, "geometry": {"type": "Point", "coordinates": [-120.480067, 46.862626]}},
{"type": "Feature", "properties": {"id": 45594, "stid": "USGSHY711", "name": "SKOOKUMCHUCK RIVER BL BLDY RUN CR NR CENTRALIA, WA", "start_datetime": "2015-04-30T23:11:00Z", "end_datetime": "2026-01-27T15:45:00Z", "elevation": 341.2, "station_info": "https://explore.synopticdata.com/USGSHY711/metadata", "marker-color": "#00FFFF", "marker-size": "small", "marker-symbol": "waterfall"}, "geometry": {"type": "Point", "coordinates": [-122.735402, 46.790102]}},
{"type": "Feature", "properties": {"id": 45595, "stid": "USGSHY712", "name": "NEWAUKUM RIVER NEAR CHEHALIS, WA", "start_datetime": "2015-04-30T23:11:00Z", "end_datetime": "2026-01-27T14:00:00Z", "elevation": 203.4, "station_info": "https://explore.synopticdata.com/USGSHY712/metadata", "marker-color": "#00FFFF", "marker-size": "small", "marker-symbol": "waterfall"}, "geometry": {"type": "Point", "coordinates": [-122.945126, 46.620104]}},
{"type": "Feature", "properties": {"id": 45597, "stid": "USGSHY714", "name": "NF SKOKOMISH R NR LWR CUSHMAN DAM NR POTLATCH, WA", "start_datetime": "2015-04-30T23:11:00Z", "end_datetime": "2026-01-27T15:15:00Z", "elevation": 328.0, "station_info": "https://explore.synopticdata.com/USGSHY714/metadata", "marker-color": "#00FFFF", "marker-size": "small", "marker-symbol": "waterfall"}, "geometry": {"type": "Point", "coordinates": [-123.20346, 47.39645]}},
{"type": "Feature", "properties": {"id": 45599, "stid": "USGSHY716", "name": "SKYKOMISH RIVER NEAR GOLD BAR, WA", "start_datetime": "2015-04-30T23:11:00Z", "end_datetime": "2026-01-27T15:15:00Z", "elevation": 209.26, "station_info": "https://explore.synopticdata.com/USGSHY716/metadata", "marker-color": "#00FFFF", "marker-size": "small", "marker-symbol": "waterfall"}, "geometry": {"type": "Point", "coordinates": [-121.666781, 47.837325]}},
{"type": "Feature", "properties": {"id": 45601, "stid": "USGSHY718", "name": "MILL CREEK AT WALLA WALLA, WA", "start_datetime": "2015-04-30T23:04:00Z", "end_datetime": "2026-01-27T15:15:00Z", "elevation": 1120.0, "station_info": "https://explore.synopticdata.com/USGSHY718/metadata", "marker-color": "#00FFFF", "marker-size": "small", "marker-symbol": "waterfall"}, "geometry": {"type": "Point", "coordinates": [-118.273572, 46.076248]}},
{"type": "Feature", "properties": {"id": 45602, "stid": "USGSHY719", "name": "CANYON CREEK NEAR CEDAR FALLS, WA", "start_datetime": "2015-04-30T23:11:00Z", "end_datetime": "2026-01-27T15:15:00Z", "elevation": 1040.0, "station_info": "https://explore.synopticdata.com/USGSHY719/metadata", "marker-color": "#00FFFF", "marker-size": "small", "marker-symbol": "waterfall"}, "geometry": {"type": "Point", "coordinates": [-121.766498, 47.419547]}},
{"type": "Feature", "properties": {"id": 45603, "stid": "USGSHY720", "name": "ELWHA RIVER AT MCDONALD BR NEAR PORT ANGELES, WA", "start_datetime": "2015-04-30T23:11:00Z", "end_datetime": "2026-01-27T15:00:00Z", "elevation": 200.0, "station_info": "https://explore.synopticdata.com/USGSHY720/metadata", "marker-color": "#00FFFF", "marker-size": "small", "marker-symbol": "waterfall"}, "geometry": {"type": "Point", "coordinates": [-123.58321, 48.05478]}},
{"type": "Feature", "properties": {"id": 45604, "stid": "USGSHY721", "name": "CHIWAWA RIVER NEAR PLAIN, WA", "start_datetime": "2015-04-30T23:11:00Z", "end_datetime": "2026-01-27T15:15:00Z", "elevation": 2100.0, "station_info": "https://explore.synopticdata.com/USGSHY721/metadata", "marker-color": "#00FFFF", "marker-size": "small", "marker-symbol": "waterfall"}, "geometry": {"type": "Point", "coordinates": [-120.66229, 47.83731]}},
{"type": "Feature", "properties": {"id": 45605, "stid": "USGSHY722", "name": "HOH RIVER AT US HIGHWAY 101 NEAR FORKS, WA", "start_datetime": "2015-04-30T23:04:00Z", "end_datetime": "2026-01-27T15:15:00Z", "elevation": 163.64, "station_info": "https://explore.synopticdata.com/USGSHY722/metadata", "marker-color": "#00FFFF", "marker-size": "small", "marker-symbol": "waterfall"}, "geometry": {"type": "Point", "coordinates": [-124.251033, 47.806747]}},
{"type": "Feature", "properties": {"id": 45606, "stid": "USGSHY723", "name": "STILLAGUAMISH RIVER NEAR STANWOOD, WA", "start_datetime": "2015-04-30T23:12:00Z", "end_datetime": "2026-01-27T15:00:00Z", "elevation": 19.7, "station_info": "https://explore.synopticdata.com/USGSHY723/metadata", "marker-color": "#00FFFF", "marker-size": "small", "marker-symbol": "waterfall"}, "geometry": {"type": "Point", "coordinates": [-122.337374, 48.21121]}},
{"type": "Feature", "properties": {"id": 45607, "stid": "USGSHY724", "name": "NISQUALLY RIVER AT MCKENNA, WA", "start_datetime": "2015-04-30T23:11:00Z", "end_datetime": "2026-01-27T15:45:00Z", "elevation": 285.47, "station_info": "https://explore.synopticdata.com/USGSHY724/metadata", "marker-color": "#00FFFF", "marker-size": "small", "marker-symbol": "waterfall"}, "geometry": {"type": "Point", "coordinates": [-122.56093, 46.9334]}},
{"type": "Feature", "properties": {"id": 45608, "stid": "USGSHY725", "name": "SOUTH FORK PALOUSE RIVER AT PULLMAN, WA", "start_datetime": "2015-04-30T23:04:00Z", "end_datetime": "2026-01-27T15:15:00Z", "elevation": 2326.3, "station_info": "https://explore.synopticdata.com/USGSHY725/metadata", "marker-color": "#00FFFF", "marker-size": "small", "marker-symbol": "waterfall"}, "geometry": {"type": "Point", "coordinates": [-117.181005, 46.732386]}},
{"type": "Feature", "properties": {"id": 45609, "stid": "USGSHY726", "name": "ELK CREEK BELOW DEER CREEK NEAR DOTY, WA", "start_datetime": "2015-04-30T23:11:00Z", "end_datetime": "2026-01-27T15:15:00Z", "elevation": 337.9, "station_info": "https://explore.synopticdata.com/USGSHY726/metadata", "marker-color": "#00FFFF", "marker-size": "small", "marker-symbol": "waterfall"}, "geometry": {"type": "Point", "coordinates": [-123.296812, 46.634546]}},
{"type": "Feature", "properties": {"id": 45610, "stid": "USGSHY727", "name": "SNOHOMISH RIVER NEAR MONROE, WA", "start_datetime": "2015-04-30T23:33:00Z", "end_datetime": "2026-01-27T15:15:00Z", "elevation": 13.25, "station_info": "https://explore.synopticdata.com/USGSHY727/metadata", "marker-color": "#00FFFF", "marker-size": "small", "marker-symbol": "waterfall"}, "geometry": {"type": "Point", "coordinates": [-122.048459, 47.830932]}},
{"type": "Feature", "properties": {"id": 45611, "stid": "USGSHY728", "name": "PUYALLUP RIVER NEAR ORTING, WA", "start_datetime": "2015-04-30T23:11:00Z", "end_datetime": "2026-01-27T15:45:00Z", "elevation": 352.5, "station_info": "https://explore.synopticdata.com/USGSHY728/metadata", "marker-color": "#00FFFF", "marker-size": "small", "marker-symbol": "waterfall"}, "geometry": {"type": "Point", "coordinates": [-122.20787, 47.03924]}},
{"type": "Feature", "properties": {"id": 45612, "stid": "USGSHY729", "name": "LEWIS RIVER ABOVE MUDDY RIVER NEAR COUGAR, WA", "start_datetime": "2015-04-30T23:11:00Z", "end_datetime": "2026-01-27T15:15:00Z", "elevation": 1080.0, "station_info": "https://explore.synopticdata.com/USGSHY729/metadata", "marker-color": "#00FFFF", "marker-size": "small", "marker-symbol": "waterfall"}, "geometry": {"type": "Point", "coordinates": [-121.98451, 46.06036]}},
{"type": "Feature", "properties": {"id": 45613, "stid": "USGSHY730", "name": "SULTAN RIVER BELOW POWERPLANT NEAR SULTAN, WA", "start_datetime": "2015-04-30T23:11:00Z", "end_datetime": "2026-01-27T15:45:00Z", "elevation": 267.0, "station_info": "https://explore.synopticdata.com/USGSHY730/metadata", "marker-color": "#00FFFF", "marker-size": "small", "marker-symbol": "waterfall"}, "geometry": {"type": "Point", "coordinates": [-121.815399, 47.907324]}},
{"type": "Feature", "properties": {"id": 45614, "stid": "USGSHY731", "name": "BACON CREEK BELOW OAKES CREEK NEAR MARBLEMOUNT, WA", "start_datetime": "2015-04-30T23:11:00Z", "end_datetime": "2026-01-27T15:00:00Z", "elevation": 410.0, "station_info": "https://explore.synopticdata.com/USGSHY731/metadata", "marker-color": "#00FFFF", "marker-size": "small", "marker-symbol": "waterfall"}, "geometry": {"type": "Point", "coordinates": [-121.39955, 48.60453]}},
{"type": "Feature", "properties": {"id": 45615, "stid": "USGSHY732", "name": "KLICKITAT RIVER ABOVE WEST FORK NEAR GLENWOOD, WA", "start_datetime": "2015-04-30T23:04:00Z", "end_datetime": "2026-01-27T15:15:00Z", "elevation": 2720.0, "station_info": "https://explore.synopticdata.com/USGSHY732/metadata", "marker-color": "#00FFFF", "marker-size": "small", "marker-symbol": "waterfall"}, "geometry": {"type": "Point", "coordinates": [-121.24505, 46.26481]}},
{"type": "Feature", "properties": {"id": 45617, "stid": "USGSHY734", "name": "OKANOGAN RIVER AT OROVILLE, WA", "start_datetime": "2015-04-30T23:11:00Z", "end_datetime": "2026-01-27T15:00:00Z", "elevation": 900.0, "station_info": "https://explore.synopticdata.com/USGSHY734/metadata", "marker-color": "#00FFFF", "marker-size": "small", "marker-symbol": "waterfall"}, "geometry": {"type": "Point", "coordinates": [-119.420342, 48.930718]}},
{"type": "Feature", "properties": {"id": 45618, "stid": "USGSHY735", "name": "TULALIP CREEK NEAR TULALIP, WA", "start_datetime": "2015-04-30T23:04:00Z", "end_datetime": "2026-01-27T15:15:00Z", "elevation": 56.99, "station_info": "https://explore.synopticdata.com/USGSHY735/metadata", "marker-color": "#00FFFF", "marker-size": "small", "marker-symbol": "waterfall"}, "geometry": {"type": "Point", "coordinates": [-122.2879, 48.06841]}},
{"type": "Feature", "properties": {"id": 45620, "stid": "USGSHY737", "name": "DUNGENESS RIVER NEAR SEQUIM, WA", "start_datetime": "2015-04-30T23:04:00Z", "end_datetime": "2026-01-27T15:15:00Z", "elevation": 569.3, "station_info": "https://explore.synopticdata.com/USGSHY737/metadata", "marker-color": "#00FFFF", "marker-size": "small", "marker-symbol": "waterfall"}, "geometry": {"type": "Point", "coordinates": [-123.132677, 48.014258]}},
{"type": "Feature", "properties": {"id": 45621, "stid": "USGSHY738", "name": "Hangman Creek at Spokane, WA", "start_datetime": "2015-04-30T23:11:00Z", "end_datetime": "2026-01-27T15:45:00Z", "elevation": 1717.42, "station_info": "https://explore.synopticdata.com/USGSHY738/metadata", "marker-color": "#00FFFF", "marker-size": "small", "marker-symbol": "waterfall"}, "geometry": {"type": "Point", "coordinates": [-117.449658, 47.652669]}},
{"type": "Feature", "properties": {"id": 45622, "stid": "USGSHY739", "name": "BOXLEY CREEK NEAR EDGEWICK, WA", "start_datetime": "2015-04-30T23:11:00Z", "end_datetime": "2026-01-27T15:15:00Z", "elevation": 650.0, "station_info": "https://explore.synopticdata.com/USGSHY739/metadata", "marker-color": "#00FFFF", "marker-size": "small", "marker-symbol": "waterfall"}, "geometry": {"type": "Point", "coordinates": [-121.731774, 47.448715]}},
{"type": "Feature", "properties": {"id": 45624, "stid": "USGSHY741", "name": "CEDAR RIVER NEAR CEDAR FALLS, WA", "start_datetime": "2015-04-30T23:04:00Z", "end_datetime": "2026-01-27T15:15:00Z", "elevation": 1560.0, "station_info": "https://explore.synopticdata.com/USGSHY741/metadata", "marker-color": "#00FFFF", "marker-size": "small", "marker-symbol": "waterfall"}, "geometry": {"type": "Point", "coordinates": [-121.625101, 47.370107]}},
{"type": "Feature", "properties": {"id": 45625, "stid": "USGSHY742", "name": "DESCHUTES RIVER NEAR RAINIER, WA", "start_datetime": "2015-04-30T23:11:00Z", "end_datetime": "2026-01-27T15:45:00Z", "elevation": 348.77, "station_info": "https://explore.synopticdata.com/USGSHY742/metadata", "marker-color": "#00FFFF", "marker-size": "small", "marker-symbol": "waterfall"}, "geometry": {"type": "Point", "coordinates": [-122.668735, 46.852045]}},
{"type": "Feature", "properties": {"id": 45626, "stid": "USGSHY743", "name": "TOUTLE RIVER AT TOWER ROAD NEAR SILVER LAKE, WA", "start_datetime": "2015-04-30T23:33:00Z", "end_datetime": "2026-01-27T15:45:00Z", "elevation": 120.0, "station_info": "https://explore.synopticdata.com/USGSHY743/metadata", "marker-color": "#00FFFF", "marker-size": "small", "marker-symbol": "waterfall"}, "geometry": {"type": "Point", "coordinates": [-122.840833, 46.335]}},
{"type": "Feature", "properties": {"id": 45627, "stid": "USGSHY744", "name": "PEND OREILLE RIVER AT INTERNATIONAL BOUNDARY", "start_datetime": "2015-04-30T23:11:00Z", "end_datetime": "2026-01-27T15:15:00Z", "elevation": 1700.0, "station_info": "https://explore.synopticdata.com/USGSHY744/metadata", "marker-color": "#00FFFF", "marker-size": "small", "marker-symbol": "waterfall"}, "geometry": {"type": "Point", "coordinates": [-117.353579, 48.998814]}},
{"type": "Feature", "properties": {"id": 45628, "stid": "USGSHY745", "name": "WILLAPA RIVER NEAR WILLAPA, WA", "start_datetime": "2015-04-30T23:11:00Z", "end_datetime": "2026-01-27T15:45:00Z", "elevation": 3.57, "station_info": "https://explore.synopticdata.com/USGSHY745/metadata", "marker-color": "#00FFFF", "marker-size": "small", "marker-symbol": "waterfall"}, "geometry": {"type": "Point", "coordinates": [-123.652658, 46.650934]}},
{"type": "Feature", "properties": {"id": 45629, "stid": "USGSHY746", "name": "SNOQUALMIE RIVER NEAR CARNATION, WA", "start_datetime": "2015-04-30T23:04:00Z", "end_datetime": "2026-01-27T15:00:00Z", "elevation": 45.9, "station_info": "https://explore.synopticdata.com/USGSHY746/metadata", "marker-color": "#00FFFF", "marker-size": "small", "marker-symbol": "waterfall"}, "geometry": {"type": "Point", "coordinates": [-121.925397, 47.665934]}},
{"type": "Feature", "properties": {"id": 45630, "stid": "USGSHY747", "name": "NISQUALLY RIVER NEAR NATIONAL, WA", "start_datetime": "2015-04-30T23:11:00Z", "end_datetime": "2026-01-27T15:00:00Z", "elevation": 1450.0, "station_info": "https://explore.synopticdata.com/USGSHY747/metadata", "marker-color": "#00FFFF", "marker-size": "small", "marker-symbol": "waterfall"}, "geometry": {"type": "Point", "coordinates": [-122.083719, 46.752608]}},
{"type": "Feature", "properties": {"id": 45631, "stid": "USGSHY748", "name": "HUMPTULIPS RIVER BELOW HWY 101 NR HUMPTULIPS, WA", "start_datetime": "2015-04-30T23:11:00Z", "end_datetime": "2026-01-27T15:45:00Z", "elevation": 90.0, "station_info": "https://explore.synopticdata.com/USGSHY748/metadata", "marker-color": "#00FFFF", "marker-size": "small", "marker-symbol": "waterfall"}, "geometry": {"type": "Point", "coordinates": [-123.974063, 47.231476]}},
{"type": "Feature", "properties": {"id": 45632, "stid": "USGSHY749", "name": "SKAGIT RIVER AT MARBLEMOUNT, WA", "start_datetime": "2015-04-30T23:11:00Z", "end_datetime": "2026-01-27T15:45:00Z", "elevation": 305.1, "station_info": "https://explore.synopticdata.com/USGSHY749/metadata", "marker-color": "#00FFFF", "marker-size": "small", "marker-symbol": "waterfall"}, "geometry": {"type": "Point", "coordinates": [-121.42985, 48.533731]}},
{"type": "Feature", "properties": {"id": 45633, "stid": "USGSHY750", "name": "WENATCHEE RIVER AT PESHASTIN, WA", "start_datetime": "2015-04-30T23:04:00Z", "end_datetime": "2026-01-27T15:00:00Z", "elevation": 1028.04, "station_info": "https://explore.synopticdata.com/USGSHY750/metadata", "marker-color": "#00FFFF", "marker-size": "small", "marker-symbol": "waterfall"}, "geometry": {"type": "Point", "coordinates": [-120.6195, 47.58314]}},
{"type": "Feature", "properties": {"id": 45634, "stid": "USGSHY751", "name": "ENTIAT RIVER NEAR ARDENVOIR, WA", "start_datetime": "2015-04-30T23:11:00Z", "end_datetime": "2026-01-27T15:00:00Z", "elevation": 1560.97, "station_info": "https://explore.synopticdata.com/USGSHY751/metadata", "marker-color": "#00FFFF", "marker-size": "small", "marker-symbol": "waterfall"}, "geometry": {"type": "Point", "coordinates": [-120.423144, 47.818462]}},
{"type": "Feature", "properties": {"id": 45636, "stid": "USGSHY753", "name": "WHITE RIVER ABOVE BOISE CREEK AT BUCKLEY, WA", "start_datetime": "2015-04-30T23:11:00Z", "end_datetime": "2026-01-27T15:15:00Z", "elevation": 611.45, "station_info": "https://explore.synopticdata.com/USGSHY753/metadata", "marker-color": "#00FFFF", "marker-size": "small", "marker-symbol": "waterfall"}, "geometry": {"type": "Point", "coordinates": [-122.008056, 47.173889]}},
{"type": "Feature", "properties": {"id": 45638, "stid": "USGSHY755", "name": "NEWAUKUM CREEK NEAR BLACK DIAMOND, WA", "start_datetime": "2015-04-30T23:48:00Z", "end_datetime": "2026-01-27T15:15:00Z", "elevation": 310.0, "station_info": "https://explore.synopticdata.com/USGSHY755/metadata", "marker-color": "#00FFFF", "marker-size": "small", "marker-symbol": "waterfall"}, "geometry": {"type": "Point", "coordinates": [-122.059559, 47.275656]}},
{"type": "Feature", "properties": {"id": 45639, "stid": "USGSHY756", "name": "SALMON CREEK ABOVE DIVERSION NEAR OKANOGAN, WA", "start_datetime": "2015-04-30T23:11:00Z", "end_datetime": "2026-01-27T15:00:00Z", "elevation": 1398.0, "station_info": "https://explore.synopticdata.com/USGSHY756/metadata", "marker-color": "#00FFFF", "marker-size": "small", "marker-symbol": "waterfall"}, "geometry": {"type": "Point", "coordinates": [-119.621723, 48.405151]}},
{"type": "Feature", "properties": {"id": 45640, "stid": "USGSHY757", "name": "COWLITZ RIVER NEAR KOSMOS, WA", "start_datetime": "2015-04-30T23:11:00Z", "end_datetime": "2026-01-27T15:15:00Z", "elevation": 759.29, "station_info": "https://explore.synopticdata.com/USGSHY757/metadata", "marker-color": "#00FFFF", "marker-size": "small", "marker-symbol": "waterfall"}, "geometry": {"type": "Point", "coordinates": [-122.108986, 46.466222]}},
{"type": "Feature", "properties": {"id": 45641, "stid": "USGSHY758", "name": "AMERICAN RIVER NEAR NILE, WA", "start_datetime": "2015-04-30T23:11:00Z", "end_datetime": "2026-01-27T15:15:00Z", "elevation": 2700.0, "station_info": "https://explore.synopticdata.com/USGSHY758/metadata", "marker-color": "#00FFFF", "marker-size": "small", "marker-symbol": "waterfall"}, "geometry": {"type": "Point", "coordinates": [-121.168696, 46.977616]}},
{"type": "Feature", "properties": {"id": 45642, "stid": "USGSHY759", "name": "SKOOKUMCHUCK RIVER NEAR BUCODA, WA", "start_datetime": "2015-04-30T23:11:00Z", "end_datetime": "2026-01-27T14:00:00Z", "elevation": 216.5, "station_info": "https://explore.synopticdata.com/USGSHY759/metadata", "marker-color": "#00FFFF", "marker-size": "small", "marker-symbol": "waterfall"}, "geometry": {"type": "Point", "coordinates": [-122.924298, 46.772046]}},
{"type": "Feature", "properties": {"id": 45644, "stid": "USGSHY761", "name": "CHEHALIS RIVER NEAR DOTY, WA", "start_datetime": "2015-04-30T23:11:00Z", "end_datetime": "2026-01-27T15:15:00Z", "elevation": 324.8, "station_info": "https://explore.synopticdata.com/USGSHY761/metadata", "marker-color": "#00FFFF", "marker-size": "small", "marker-symbol": "waterfall"}, "geometry": {"type": "Point", "coordinates": [-123.277644, 46.617324]}},
{"type": "Feature", "properties": {"id": 45645, "stid": "USGSHY762", "name": "NF STILLAGUAMISH RIVER NEAR ARLINGTON, WA", "start_datetime": "2015-04-30T23:04:00Z", "end_datetime": "2026-01-27T15:15:00Z", "elevation": 89.34, "station_info": "https://explore.synopticdata.com/USGSHY762/metadata", "marker-color": "#00FFFF", "marker-size": "small", "marker-symbol": "waterfall"}, "geometry": {"type": "Point", "coordinates": [-122.04762, 48.26146]}},
{"type": "Feature", "properties": {"id": 45646, "stid": "USGSHY763", "name": "QUEETS RIVER NEAR CLEARWATER, WA", "start_datetime": "2015-04-30T23:11:00Z", "end_datetime": "2026-01-27T15:15:00Z", "elevation": 14.5, "station_info": "https://explore.synopticdata.com/USGSHY763/metadata", "marker-color": "#00FFFF", "marker-size": "small", "marker-symbol": "waterfall"}, "geometry": {"type": "Point", "coordinates": [-124.31572, 47.53783]}},
{"type": "Feature", "properties": {"id": 45649, "stid": "USGSHY766", "name": "COLUMBIA RIVER BELOW PRIEST RAPIDS DAM, WA", "start_datetime": "2015-04-30T23:04:00Z", "end_datetime": "2026-01-27T15:15:00Z", "elevation": 390.0, "station_info": "https://explore.synopticdata.com/USGSHY766/metadata", "marker-color": "#00FFFF", "marker-size": "small", "marker-symbol": "waterfall"}, "geometry": {"type": "Point", "coordinates": [-119.86474, 46.62871]}},
{"type": "Feature", "properties": {"id": 45653, "stid": "USGSHY770", "name": "LEWIS RIVER AT ARIEL, WA", "start_datetime": "2015-04-30T23:33:00Z", "end_datetime": "2026-01-27T15:45:00Z", "elevation": 44.0, "station_info": "https://explore.synopticdata.com/USGSHY770/metadata", "marker-color": "#00FFFF", "marker-size": "small", "marker-symbol": "waterfall"}, "geometry": {"type": "Point", "coordinates": [-122.56397, 45.95174]}},
{"type": "Feature", "properties": {"id": 45655, "stid": "USGSHY772", "name": "CARBON RIVER NEAR FAIRFAX, WA", "start_datetime": "2015-04-30T23:11:00Z", "end_datetime": "2026-01-27T15:00:00Z", "elevation": 1201.7, "station_info": "https://explore.synopticdata.com/USGSHY772/metadata", "marker-color": "#00FFFF", "marker-size": "small", "marker-symbol": "waterfall"}, "geometry": {"type": "Point", "coordinates": [-122.032611, 47.027881]}},
{"type": "Feature", "properties": {"id": 45656, "stid": "USGSHY773", "name": "HUGE CREEK NEAR WAUNA, WA", "start_datetime": "2015-04-30T23:04:00Z", "end_datetime": "2026-01-27T15:00:00Z", "elevation": 113.0, "station_info": "https://explore.synopticdata.com/USGSHY773/metadata", "marker-color": "#00FFFF", "marker-size": "small", "marker-symbol": "waterfall"}, "geometry": {"type": "Point", "coordinates": [-122.699024, 47.389262]}},
{"type": "Feature", "properties": {"id": 45657, "stid": "USGSHY774", "name": "CHAMOKANE CREEK BELOW FALLS NEAR LONG LAKE, WA", "start_datetime": "2015-04-30T23:11:00Z", "end_datetime": "2026-01-27T15:15:00Z", "elevation": 1420.0, "station_info": "https://explore.synopticdata.com/USGSHY774/metadata", "marker-color": "#00FFFF", "marker-size": "small", "marker-symbol": "waterfall"}, "geometry": {"type": "Point", "coordinates": [-117.858294, 47.86322]}},
{"type": "Feature", "properties": {"id": 45658, "stid": "USGSHY775", "name": "DUCKABUSH RIVER NEAR BRINNON, WA", "start_datetime": "2015-04-30T23:11:00Z", "end_datetime": "2026-01-27T12:45:00Z", "elevation": 241.49, "station_info": "https://explore.synopticdata.com/USGSHY775/metadata", "marker-color": "#00FFFF", "marker-size": "small", "marker-symbol": "waterfall"}, "geometry": {"type": "Point", "coordinates": [-123.011551, 47.683981]}},
{"type": "Feature", "properties": {"id": 45659, "stid": "USGSHY776", "name": "SF SNOQUALMIE RIVER AB ALICE CREEK NEAR GARCIA, WA", "start_datetime": "2015-04-30T23:04:00Z", "end_datetime": "2026-01-27T15:00:00Z", "elevation": 1437.67, "station_info": "https://explore.synopticdata.com/USGSHY776/metadata", "marker-color": "#00FFFF", "marker-size": "small", "marker-symbol": "waterfall"}, "geometry": {"type": "Point", "coordinates": [-121.587321, 47.415109]}},
{"type": "Feature", "properties": {"id": 45660, "stid": "USGSHY777", "name": "NORTH FORK CLOVER CREEK NEAR PARKLAND, WA", "start_datetime": "2015-04-30T23:04:00Z", "end_datetime": "2026-01-27T15:15:00Z", "elevation": 315.0, "station_info": "https://explore.synopticdata.com/USGSHY777/metadata", "marker-color": "#00FFFF", "marker-size": "small", "marker-symbol": "waterfall"}, "geometry": {"type": "Point", "coordinates": [-122.4151, 47.13452]}},
{"type": "Feature", "properties": {"id": 45661, "stid": "USGSHY778", "name": "CASCADE RIVER AT MARBLEMOUNT, WA", "start_datetime": "2015-04-30T23:11:00Z", "end_datetime": "2026-01-27T14:00:00Z", "elevation": 330.0, "station_info": "https://explore.synopticdata.com/USGSHY778/metadata", "marker-color": "#00FFFF", "marker-size": "small", "marker-symbol": "waterfall"}, "geometry": {"type": "Point", "coordinates": [-121.415405, 48.526231]}},
{"type": "Feature", "properties": {"id": 45662, "stid": "USGSHY779", "name": "HOKO RIVER NEAR SEKIU, WA", "start_datetime": "2015-04-30T23:11:00Z", "end_datetime": "2026-01-27T15:15:00Z", "elevation": 50.0, "station_info": "https://explore.synopticdata.com/USGSHY779/metadata", "marker-color": "#00FFFF", "marker-size": "small", "marker-symbol": "waterfall"}, "geometry": {"type": "Point", "coordinates": [-124.383833, 48.241464]}},
{"type": "Feature", "properties": {"id": 45663, "stid": "USGSHY780", "name": "EAST FORK LEWIS RIVER NEAR HEISSON, WA", "start_datetime": "2015-04-30T23:11:00Z", "end_datetime": "2026-01-27T15:00:00Z", "elevation": 356.8, "station_info": "https://explore.synopticdata.com/USGSHY780/metadata", "marker-color": "#00FFFF", "marker-size": "small", "marker-symbol": "waterfall"}, "geometry": {"type": "Point", "coordinates": [-122.466208, 45.836781]}},
{"type": "Feature", "properties": {"id": 45664, "stid": "USGSHY781", "name": "PILCHUCK RIVER NEAR SNOHOMISH, WA", "start_datetime": "2015-04-30T23:11:00Z", "end_datetime": "2026-01-27T14:00:00Z", "elevation": 30.0, "station_info": "https://explore.synopticdata.com/USGSHY781/metadata", "marker-color": "#00FFFF", "marker-size": "small", "marker-symbol": "waterfall"}, "geometry": {"type": "Point", "coordinates": [-122.073185, 47.93482]}},
{"type": "Feature", "properties": {"id": 45665, "stid": "USGSHY782", "name": "SUMAS RIVER NEAR SUMAS, WA", "start_datetime": "2017-07-10T16:34:00Z", "end_datetime": "2026-01-27T15:00:00Z", "elevation": 45.9, "station_info": "https://explore.synopticdata.com/USGSHY782/metadata", "marker-color": "#00FFFF", "marker-size": "small", "marker-symbol": "waterfall"}, "geometry": {"type": "Point", "coordinates": [-122.251264, 48.974843]}},
{"type": "Feature", "properties": {"id": 45667, "stid": "USGSHY784", "name": "KLICKITAT RIVER NEAR PITT, WA", "start_datetime": "2015-04-30T23:11:00Z", "end_datetime": "2026-01-27T15:00:00Z", "elevation": 288.9, "station_info": "https://explore.synopticdata.com/USGSHY784/metadata", "marker-color": "#00FFFF", "marker-size": "small", "marker-symbol": "waterfall"}, "geometry": {"type": "Point", "coordinates": [-121.210071, 45.756511]}},
{"type": "Feature", "properties": {"id": 45668, "stid": "USGSHY785", "name": "WHITE RIVER FLUME AT BUCKLEY, WA", "start_datetime": "2015-04-30T23:11:00Z", "end_datetime": "2026-01-27T15:00:00Z", "elevation": 661.8, "station_info": "https://explore.synopticdata.com/USGSHY785/metadata", "marker-color": "#00FFFF", "marker-size": "small", "marker-symbol": "waterfall"}, "geometry": {"type": "Point", "coordinates": [-122.01203, 47.16952]}},
{"type": "Feature", "properties": {"id": 45669, "stid": "USGSHY786", "name": "CRAB CREEK NEAR BEVERLY, WA", "start_datetime": "2015-04-30T23:04:00Z", "end_datetime": "2026-01-27T15:00:00Z", "elevation": 500.0, "station_info": "https://explore.synopticdata.com/USGSHY786/metadata", "marker-color": "#00FFFF", "marker-size": "small", "marker-symbol": "waterfall"}, "geometry": {"type": "Point", "coordinates": [-119.83113, 46.82982]}},
{"type": "Feature", "properties": {"id": 45670, "stid": "USGSHY787", "name": "WALLA WALLA RIVER NEAR TOUCHET, WA", "start_datetime": "2015-04-30T23:11:00Z", "end_datetime": "2026-01-27T15:15:00Z", "elevation": 405.0, "station_info": "https://explore.synopticdata.com/USGSHY787/metadata", "marker-color": "#00FFFF", "marker-size": "small", "marker-symbol": "waterfall"}, "geometry": {"type": "Point", "coordinates": [-118.72969, 46.02761]}},
{"type": "Feature", "properties": {"id": 45671, "stid": "USGSHY788", "name": "TUCANNON RIVER NEAR STARBUCK, WA", "start_datetime": "2015-04-30T23:11:00Z", "end_datetime": "2026-01-27T15:45:00Z", "elevation": 730.0, "station_info": "https://explore.synopticdata.com/USGSHY788/metadata", "marker-color": "#00FFFF", "marker-size": "small", "marker-symbol": "waterfall"}, "geometry": {"type": "Point", "coordinates": [-118.066339, 46.505422]}},
{"type": "Feature", "properties": {"id": 45673, "stid": "USGSHY790", "name": "TOPPENISH CREEK NEAR FORT SIMCOE, WA", "start_datetime": "2015-04-30T23:11:00Z", "end_datetime": "2026-01-27T15:45:00Z", "elevation": 1306.0, "station_info": "https://explore.synopticdata.com/USGSHY790/metadata", "marker-color": "#00FFFF", "marker-size": "small", "marker-symbol": "waterfall"}, "geometry": {"type": "Point", "coordinates": [-120.788125, 46.310959]}},
{"type": "Feature", "properties": {"id": 45674, "stid": "USGSHY791", "name": "SKOOKUMCHUCK RIVER NEAR VAIL, WA", "start_datetime": "2015-04-30T23:11:00Z", "end_datetime": "2026-01-27T15:00:00Z", "elevation": 794.0, "station_info": "https://explore.synopticdata.com/USGSHY791/metadata", "marker-color": "#00FFFF", "marker-size": "small", "marker-symbol": "waterfall"}, "geometry": {"type": "Point", "coordinates": [-122.594009, 46.772603]}},
{"type": "Feature", "properties": {"id": 45675, "stid": "USGSHY792", "name": "NF NOOKSACK RIVER BL CASCADE CREEK NR GLACIER, WA", "start_datetime": "2015-04-30T23:04:00Z", "end_datetime": "2026-01-27T15:00:00Z", "elevation": 1245.0, "station_info": "https://explore.synopticdata.com/USGSHY792/metadata", "marker-color": "#00FFFF", "marker-size": "small", "marker-symbol": "waterfall"}, "geometry": {"type": "Point", "coordinates": [-121.84431, 48.905957]}},
{"type": "Feature", "properties": {"id": 45676, "stid": "USGSHY793", "name": "CHEWUCH RIVER AT WINTHROP, WA", "start_datetime": "2015-04-30T23:11:00Z", "end_datetime": "2026-01-27T10:45:00Z", "elevation": 1736.26, "station_info": "https://explore.synopticdata.com/USGSHY793/metadata", "marker-color": "#00FFFF", "marker-size": "small", "marker-symbol": "waterfall"}, "geometry": {"type": "Point", "coordinates": [-120.186473, 48.47709]}},
{"type": "Feature", "properties": {"id": 45677, "stid": "USGSHY794", "name": "MAD RIVER AT ARDENVOIR, WA", "start_datetime": "2015-04-30T23:11:00Z", "end_datetime": "2026-01-27T15:15:00Z", "elevation": 1260.0, "station_info": "https://explore.synopticdata.com/USGSHY794/metadata", "marker-color": "#00FFFF", "marker-size": "small", "marker-symbol": "waterfall"}, "geometry": {"type": "Point", "coordinates": [-120.368696, 47.736794]}},
{"type": "Feature", "properties": {"id": 45680, "stid": "USGSHY797", "name": "MILL CREEK NEAR MOUTH AT ORILLIA, WA", "start_datetime": "2015-04-30T23:11:00Z", "end_datetime": "2026-01-27T14:00:00Z", "elevation": 26.2, "station_info": "https://explore.synopticdata.com/USGSHY797/metadata", "marker-color": "#00FFFF", "marker-size": "small", "marker-symbol": "waterfall"}, "geometry": {"type": "Point", "coordinates": [-122.243177, 47.4301]}},
{"type": "Feature", "properties": {"id": 45682, "stid": "USGSHY799", "name": "BAKER RIVER AT HENRY THOMPSON BR AT CONCRETE, WA", "start_datetime": "2015-04-30T23:11:00Z", "end_datetime": "2026-01-27T15:15:00Z", "elevation": 236.2, "station_info": "https://explore.synopticdata.com/USGSHY799/metadata", "marker-color": "#00FFFF", "marker-size": "small", "marker-symbol": "waterfall"}, "geometry": {"type": "Point", "coordinates": [-121.743473, 48.540393]}},
{"type": "Feature", "properties": {"id": 45683, "stid": "USGSHY800", "name": "Spokane River at Spokane, WA", "start_datetime": "2015-04-30T23:11:00Z", "end_datetime": "2026-01-27T15:15:00Z", "elevation": 1697.0, "station_info": "https://explore.synopticdata.com/USGSHY800/metadata", "marker-color": "#00FFFF", "marker-size": "small", "marker-symbol": "waterfall"}, "geometry": {"type": "Point", "coordinates": [-117.449103, 47.659335]}},
{"type": "Feature", "properties": {"id": 45684, "stid": "USGSHY801", "name": "GREEN RIVER AT 200TH STREET AT KENT, WA", "start_datetime": "2015-04-30T23:11:00Z", "end_datetime": "2026-01-27T15:15:00Z", "elevation": 16.4, "station_info": "https://explore.synopticdata.com/USGSHY801/metadata", "marker-color": "#00FFFF", "marker-size": "small", "marker-symbol": "waterfall"}, "geometry": {"type": "Point", "coordinates": [-122.2654, 47.422877]}},
{"type": "Feature", "properties": {"id": 45685, "stid": "USGSHY802", "name": "MILL CREEK AT EARTHWORKS PARK AT KENT, WA", "start_datetime": "2015-04-30T23:11:00Z", "end_datetime": "2026-01-27T15:45:00Z", "elevation": 62.3, "station_info": "https://explore.synopticdata.com/USGSHY802/metadata", "marker-color": "#00FFFF", "marker-size": "small", "marker-symbol": "waterfall"}, "geometry": {"type": "Point", "coordinates": [-122.224843, 47.383156]}},
{"type": "Feature", "properties": {"id": 45686, "stid": "USGSHY803", "name": "SPRINGBROOK CREEK AT ORILLIA, WA", "start_datetime": "2015-04-30T23:11:00Z", "end_datetime": "2026-01-27T14:00:00Z", "elevation": 13.1, "station_info": "https://explore.synopticdata.com/USGSHY803/metadata", "marker-color": "#00FFFF", "marker-size": "small", "marker-symbol": "waterfall"}, "geometry": {"type": "Point", "coordinates": [-122.227621, 47.431211]}},
{"type": "Feature", "properties": {"id": 45687, "stid": "USGSHY804", "name": "MF NOOKSACK RIVER NEAR DEMING, WA", "start_datetime": "2015-04-30T23:11:00Z", "end_datetime": "2026-01-27T15:00:00Z", "elevation": 580.0, "station_info": "https://explore.synopticdata.com/USGSHY804/metadata", "marker-color": "#00FFFF", "marker-size": "small", "marker-symbol": "waterfall"}, "geometry": {"type": "Point", "coordinates": [-122.106543, 48.779283]}},
{"type": "Feature", "properties": {"id": 45689, "stid": "USGSHY806", "name": "HANGMAN CREEK AT STATE LINE ROAD NEAR TEKOA, WA", "start_datetime": "2015-04-30T23:11:00Z", "end_datetime": "2026-01-27T15:15:00Z", "elevation": 2500.0, "station_info": "https://explore.synopticdata.com/USGSHY806/metadata", "marker-color": "#00FFFF", "marker-size": "small", "marker-symbol": "waterfall"}, "geometry": {"type": "Point", "coordinates": [-117.04073, 47.202676]}},
{"type": "Feature", "properties": {"id": 45690, "stid": "USGSHY807", "name": "SKAGIT RIVER AT NEWHALEM, WA", "start_datetime": "2015-04-30T23:04:00Z", "end_datetime": "2026-01-27T15:45:00Z", "elevation": 401.5, "station_info": "https://explore.synopticdata.com/USGSHY807/metadata", "marker-color": "#00FFFF", "marker-size": "small", "marker-symbol": "waterfall"}, "geometry": {"type": "Point", "coordinates": [-121.246235, 48.671792]}},
{"type": "Feature", "properties": {"id": 45691, "stid": "USGSHY808", "name": "PUYALLUP RIVER AT E MAIN BRIDGE AT PUYALLUP, WA", "start_datetime": "2015-04-30T23:11:00Z", "end_datetime": "2026-01-27T15:15:00Z", "elevation": 52.5, "station_info": "https://explore.synopticdata.com/USGSHY808/metadata", "marker-color": "#00FFFF", "marker-size": "small", "marker-symbol": "waterfall"}, "geometry": {"type": "Point", "coordinates": [-122.25093, 47.19674]}},
{"type": "Feature", "properties": {"id": 45692, "stid": "USGSHY809", "name": "SKAGIT RIVER NEAR CONCRETE, WA", "start_datetime": "2015-04-30T23:04:00Z", "end_datetime": "2026-01-27T15:45:00Z", "elevation": 130.0, "station_info": "https://explore.synopticdata.com/USGSHY809/metadata", "marker-color": "#00FFFF", "marker-size": "small", "marker-symbol": "waterfall"}, "geometry": {"type": "Point", "coordinates": [-121.770974, 48.524281]}},
{"type": "Feature", "properties": {"id": 45693, "stid": "USGSHY810", "name": "GOLDSBOROUGH CREEK ABOVE 7TH STREET AT SHELTON, WA", "start_datetime": "2015-04-30T23:11:00Z", "end_datetime": "2026-01-27T15:00:00Z", "elevation": 75.5, "station_info": "https://explore.synopticdata.com/USGSHY810/metadata", "marker-color": "#00FFFF", "marker-size": "small", "marker-symbol": "waterfall"}, "geometry": {"type": "Point", "coordinates": [-123.112929, 47.211761]}},
{"type": "Feature", "properties": {"id": 45694, "stid": "USGSHY811", "name": "SWAN CREEK AT 80TH ST EAST NEAR TACOMA, WA", "start_datetime": "2015-09-30T15:00:00Z", "end_datetime": "2026-01-27T15:00:00Z", "elevation": 395.0, "station_info": "https://explore.synopticdata.com/USGSHY811/metadata", "marker-color": "#00FFFF", "marker-size": "small", "marker-symbol": "waterfall"}, "geometry": {"type": "Point", "coordinates": [-122.39371, 47.18452]}},
{"type": "Feature", "properties": {"id": 45695, "stid": "USGSHY812", "name": "PUYALLUP RIVER AT ALDERTON, WA", "start_datetime": "2015-04-30T23:11:00Z", "end_datetime": "2026-01-27T15:45:00Z", "elevation": 59.1, "station_info": "https://explore.synopticdata.com/USGSHY812/metadata", "marker-color": "#00FFFF", "marker-size": "small", "marker-symbol": "waterfall"}, "geometry": {"type": "Point", "coordinates": [-122.229563, 47.185101]}},
{"type": "Feature", "properties": {"id": 45697, "stid": "USGSHY814", "name": "CRAB CREEK AT IRBY, WA", "start_datetime": "2015-04-30T23:11:00Z", "end_datetime": "2026-01-27T15:15:00Z", "elevation": 1386.3, "station_info": "https://explore.synopticdata.com/USGSHY814/metadata", "marker-color": "#00FFFF", "marker-size": "small", "marker-symbol": "waterfall"}, "geometry": {"type": "Point", "coordinates": [-118.85, 47.36038]}},
{"type": "Feature", "properties": {"id": 45698, "stid": "USGSHY815", "name": "MILL CREEK NEAR WALLA WALLA, WA", "start_datetime": "2015-04-30T23:11:00Z", "end_datetime": "2026-01-27T15:15:00Z", "elevation": 2000.0, "station_info": "https://explore.synopticdata.com/USGSHY815/metadata", "marker-color": "#00FFFF", "marker-size": "small", "marker-symbol": "waterfall"}, "geometry": {"type": "Point", "coordinates": [-118.11856, 46.00789]}},
{"type": "Feature", "properties": {"id": 45700, "stid": "USGSHY817", "name": "CEDAR RIVER BELOW BEAR CREEK NEAR CEDAR FALLS, WA", "start_datetime": "2015-04-30T23:04:00Z", "end_datetime": "2026-01-27T15:15:00Z", "elevation": 1880.0, "station_info": "https://explore.synopticdata.com/USGSHY817/metadata", "marker-color": "#00FFFF", "marker-size": "small", "marker-symbol": "waterfall"}, "geometry": {"type": "Point", "coordinates": [-121.54897, 47.34202]}},
{"type": "Feature", "properties": {"id": 45702, "stid": "USGSHY819", "name": "SNOQUALMIE RIVER NEAR SNOQUALMIE, WA", "start_datetime": "2015-04-30T23:11:00Z", "end_datetime": "2026-01-27T15:15:00Z", "elevation": 120.0, "station_info": "https://explore.synopticdata.com/USGSHY819/metadata", "marker-color": "#00FFFF", "marker-size": "small", "marker-symbol": "waterfall"}, "geometry": {"type": "Point", "coordinates": [-121.84232, 47.54508]}},
{"type": "Feature", "properties": {"id": 45703, "stid": "USGSHY820", "name": "COWLITZ RIVER AT PACKWOOD, WA", "start_datetime": "2015-04-30T23:11:00Z", "end_datetime": "2026-01-27T15:00:00Z", "elevation": 1048.0, "station_info": "https://explore.synopticdata.com/USGSHY820/metadata", "marker-color": "#00FFFF", "marker-size": "small", "marker-symbol": "waterfall"}, "geometry": {"type": "Point", "coordinates": [-121.67923, 46.61286]}},
{"type": "Feature", "properties": {"id": 45705, "stid": "USGSHY822", "name": "CEDAR RIVER BELOW DIVERSION NEAR LANDSBURG, WA", "start_datetime": "2015-04-30T23:11:00Z", "end_datetime": "2026-01-27T15:00:00Z", "elevation": 490.0, "station_info": "https://explore.synopticdata.com/USGSHY822/metadata", "marker-color": "#00FFFF", "marker-size": "small", "marker-symbol": "waterfall"}, "geometry": {"type": "Point", "coordinates": [-121.983448, 47.379546]}},
{"type": "Feature", "properties": {"id": 45706, "stid": "USGSHY823", "name": "ANDREWS CREEK NEAR MAZAMA, WA", "start_datetime": "2015-04-30T23:11:00Z", "end_datetime": "2026-01-27T15:45:00Z", "elevation": 4300.0, "station_info": "https://explore.synopticdata.com/USGSHY823/metadata", "marker-color": "#00FFFF", "marker-size": "small", "marker-symbol": "waterfall"}, "geometry": {"type": "Point", "coordinates": [-120.1459, 48.82287]}},
{"type": "Feature", "properties": {"id": 45707, "stid": "USGSHY824", "name": "SAUK RIVER AT DARRINGTON, WA", "start_datetime": "2015-04-30T23:11:00Z", "end_datetime": "2026-01-27T07:00:00Z", "elevation": 525.0, "station_info": "https://explore.synopticdata.com/USGSHY824/metadata", "marker-color": "#00FFFF", "marker-size": "small", "marker-symbol": "waterfall"}, "geometry": {"type": "Point", "coordinates": [-121.584569, 48.249831]}},
{"type": "Feature", "properties": {"id": 45708, "stid": "USGSHY825", "name": "NF TOUTLE RIVER BELOW SRS NEAR KID VALLEY, WA", "start_datetime": "2015-04-30T23:11:00Z", "end_datetime": "2026-01-27T15:00:00Z", "elevation": 700.0, "station_info": "https://explore.synopticdata.com/USGSHY825/metadata", "marker-color": "#00FFFF", "marker-size": "small", "marker-symbol": "waterfall"}, "geometry": {"type": "Point", "coordinates": [-122.578999, 46.371775]}},
{"type": "Feature", "properties": {"id": 45709, "stid": "USGSHY826", "name": "KETTLE RIVER NEAR LAURIER, WA", "start_datetime": "2015-04-30T23:04:00Z", "end_datetime": "2026-01-27T15:15:00Z", "elevation": 1425.5, "station_info": "https://explore.synopticdata.com/USGSHY826/metadata", "marker-color": "#00FFFF", "marker-size": "small", "marker-symbol": "waterfall"}, "geometry": {"type": "Point", "coordinates": [-118.2164, 48.98428]}},
{"type": "Feature", "properties": {"id": 45710, "stid": "USGSHY827", "name": "NORTH FORK TOLT RIVER NEAR CARNATION, WA", "start_datetime": "2015-04-30T23:04:00Z", "end_datetime": "2026-01-27T15:00:00Z", "elevation": 600.0, "station_info": "https://explore.synopticdata.com/USGSHY827/metadata", "marker-color": "#00FFFF", "marker-size": "small", "marker-symbol": "waterfall"}, "geometry": {"type": "Point", "coordinates": [-121.788727, 47.712324]}},
{"type": "Feature", "properties": {"id": 45711, "stid": "USGSHY828", "name": "MISSION CREEK NEAR TULALIP, WA", "start_datetime": "2015-04-30T23:04:00Z", "end_datetime": "2026-01-27T15:15:00Z", "elevation": 20.3, "station_info": "https://explore.synopticdata.com/USGSHY828/metadata", "marker-color": "#00FFFF", "marker-size": "small", "marker-symbol": "waterfall"}, "geometry": {"type": "Point", "coordinates": [-122.26734, 48.05841]}},
{"type": "Feature", "properties": {"id": 45712, "stid": "USGSHY829", "name": "WYNOOCHEE RIVER ABOVE SAVE CREEK NEAR ABERDEEN, WA", "start_datetime": "2015-05-05T21:01:00Z", "end_datetime": "2026-01-27T15:45:00Z", "elevation": 515.1, "station_info": "https://explore.synopticdata.com/USGSHY829/metadata", "marker-color": "#00FFFF", "marker-size": "small", "marker-symbol": "waterfall"}, "geometry": {"type": "Point", "coordinates": [-123.653223, 47.298978]}},
{"type": "Feature", "properties": {"id": 45714, "stid": "USGSHY831", "name": "WHITE SALMON RIVER NEAR UNDERWOOD, WA", "start_datetime": "2015-04-30T23:33:00Z", "end_datetime": "2026-01-27T15:00:00Z", "elevation": 112.96, "station_info": "https://explore.synopticdata.com/USGSHY831/metadata", "marker-color": "#00FFFF", "marker-size": "small", "marker-symbol": "waterfall"}, "geometry": {"type": "Point", "coordinates": [-121.527018, 45.752064]}},
{"type": "Feature", "properties": {"id": 45715, "stid": "USGSHY832", "name": "CHEHALIS RIVER NEAR GRAND MOUND, WA", "start_datetime": "2015-04-30T23:11:00Z", "end_datetime": "2026-01-27T15:00:00Z", "elevation": 137.8, "station_info": "https://explore.synopticdata.com/USGSHY832/metadata", "marker-color": "#00FFFF", "marker-size": "small", "marker-symbol": "waterfall"}, "geometry": {"type": "Point", "coordinates": [-123.035692, 46.775934]}},
{"type": "Feature", "properties": {"id": 45716, "stid": "USGSHY833", "name": "MINERAL CREEK NEAR MINERAL, WA", "start_datetime": "2015-04-30T23:11:00Z", "end_datetime": "2026-01-27T15:00:00Z", "elevation": 1340.0, "station_info": "https://explore.synopticdata.com/USGSHY833/metadata", "marker-color": "#00FFFF", "marker-size": "small", "marker-symbol": "waterfall"}, "geometry": {"type": "Point", "coordinates": [-122.14453, 46.74424]}},
{"type": "Feature", "properties": {"id": 45717, "stid": "USGSHY834", "name": "AHTANUM CREEK AT UNION GAP, WA", "start_datetime": "2015-04-30T23:11:00Z", "end_datetime": "2026-01-27T15:15:00Z", "elevation": 940.0, "station_info": "https://explore.synopticdata.com/USGSHY834/metadata", "marker-color": "#00FFFF", "marker-size": "small", "marker-symbol": "waterfall"}, "geometry": {"type": "Point", "coordinates": [-120.473397, 46.53596]}},
{"type": "Feature", "properties": {"id": 45718, "stid": "USGSHY835", "name": "NF NEWAUKUM RIVER ABOVE BEAR CREEK NEAR FOREST, WA", "start_datetime": "2015-04-30T23:11:00Z", "end_datetime": "2026-01-27T15:00:00Z", "elevation": 410.1, "station_info": "https://explore.synopticdata.com/USGSHY835/metadata", "marker-color": "#00FFFF", "marker-size": "small", "marker-symbol": "waterfall"}, "geometry": {"type": "Point", "coordinates": [-122.770121, 46.667326]}},
{"type": "Feature", "properties": {"id": 45719, "stid": "USGSHY836", "name": "CRAB CREEK NEAR MOSES LAKE, WA", "start_datetime": "2015-04-30T23:11:00Z", "end_datetime": "2026-01-27T14:00:00Z", "elevation": 1070.39, "station_info": "https://explore.synopticdata.com/USGSHY836/metadata", "marker-color": "#00FFFF", "marker-size": "small", "marker-symbol": "waterfall"}, "geometry": {"type": "Point", "coordinates": [-119.265855, 47.189309]}},
{"type": "Feature", "properties": {"id": 45720, "stid": "USGSHY837", "name": "SATSOP RIVER NEAR SATSOP, WA", "start_datetime": "2015-04-30T23:04:00Z", "end_datetime": "2026-01-27T15:00:00Z", "elevation": 32.8, "station_info": "https://explore.synopticdata.com/USGSHY837/metadata", "marker-color": "#00FFFF", "marker-size": "small", "marker-symbol": "waterfall"}, "geometry": {"type": "Point", "coordinates": [-123.494884, 47.000651]}},
{"type": "Feature", "properties": {"id": 45721, "stid": "USGSHY838", "name": "SNAKE RIVER NEAR ANATONE, WA", "start_datetime": "2015-04-30T23:04:00Z", "end_datetime": "2026-01-27T15:00:00Z", "elevation": 807.0, "station_info": "https://explore.synopticdata.com/USGSHY838/metadata", "marker-color": "#00FFFF", "marker-size": "small", "marker-symbol": "waterfall"}, "geometry": {"type": "Point", "coordinates": [-116.97769, 46.09707]}},
{"type": "Feature", "properties": {"id": 45722, "stid": "USGSHY839", "name": "BIG SOOS CREEK ABOVE HATCHERY NEAR AUBURN, WA", "start_datetime": "2015-04-30T23:04:00Z", "end_datetime": "2026-01-27T15:15:00Z", "elevation": 77.2, "station_info": "https://explore.synopticdata.com/USGSHY839/metadata", "marker-color": "#00FFFF", "marker-size": "small", "marker-symbol": "waterfall"}, "geometry": {"type": "Point", "coordinates": [-122.165396, 47.312323]}},
{"type": "Feature", "properties": {"id": 45724, "stid": "USGSHY841", "name": "MILL CREEK AT FIVE MILE RD BR NR WALLA WALLA, WA", "start_datetime": "2015-04-30T23:11:00Z", "end_datetime": "2026-01-27T15:15:00Z", "elevation": 1330.0, "station_info": "https://explore.synopticdata.com/USGSHY841/metadata", "marker-color": "#00FFFF", "marker-size": "small", "marker-symbol": "waterfall"}, "geometry": {"type": "Point", "coordinates": [-118.228291, 46.085693]}},
{"type": "Feature", "properties": {"id": 45726, "stid": "USGSHY843", "name": "JOHNSON CREEK NEAR RIVERSIDE, WA", "start_datetime": "2015-04-30T23:12:00Z", "end_datetime": "2026-01-27T15:00:00Z", "elevation": 1342.0, "station_info": "https://explore.synopticdata.com/USGSHY843/metadata", "marker-color": "#00FFFF", "marker-size": "small", "marker-symbol": "waterfall"}, "geometry": {"type": "Point", "coordinates": [-119.52615, 48.49705]}},
{"type": "Feature", "properties": {"id": 45727, "stid": "USGSHY844", "name": "PUYALLUP RIVER AT 5TH ST BRIDGE AT PUYALLUP, WA", "start_datetime": "2015-04-30T23:11:00Z", "end_datetime": "2026-01-27T15:15:00Z", "elevation": 39.4, "station_info": "https://explore.synopticdata.com/USGSHY844/metadata", "marker-color": "#00FFFF", "marker-size": "small", "marker-symbol": "waterfall"}, "geometry": {"type": "Point", "coordinates": [-122.287342, 47.198712]}},
{"type": "Feature", "properties": {"id": 45729, "stid": "USGSHY846", "name": "PALOUSE RIVER AT HOOPER, WA", "start_datetime": "2015-04-30T23:11:00Z", "end_datetime": "2026-01-27T15:15:00Z", "elevation": 1040.8, "station_info": "https://explore.synopticdata.com/USGSHY846/metadata", "marker-color": "#00FFFF", "marker-size": "small", "marker-symbol": "waterfall"}, "geometry": {"type": "Point", "coordinates": [-118.148849, 46.758483]}},
{"type": "Feature", "properties": {"id": 45730, "stid": "USGSHY847", "name": "REX RIVER NEAR CEDAR FALLS, WA", "start_datetime": "2015-04-30T23:04:00Z", "end_datetime": "2026-01-27T15:15:00Z", "elevation": 1700.0, "station_info": "https://explore.synopticdata.com/USGSHY847/metadata", "marker-color": "#00FFFF", "marker-size": "small", "marker-symbol": "waterfall"}, "geometry": {"type": "Point", "coordinates": [-121.66314, 47.35063]}},
{"type": "Feature", "properties": {"id": 45733, "stid": "USGSHY850", "name": "DESCHUTES RIVER AT E ST BRIDGE AT TUMWATER, WA", "start_datetime": "2015-04-30T23:11:00Z", "end_datetime": "2026-01-27T15:45:00Z", "elevation": 62.01, "station_info": "https://explore.synopticdata.com/USGSHY850/metadata", "marker-color": "#00FFFF", "marker-size": "small", "marker-symbol": "waterfall"}, "geometry": {"type": "Point", "coordinates": [-122.90317, 47.01173]}},
{"type": "Feature", "properties": {"id": 45734, "stid": "USGSHY851", "name": "QUINAULT RIVER AT QUINAULT LAKE, WA", "start_datetime": "2015-04-30T23:11:00Z", "end_datetime": "2026-01-27T15:15:00Z", "elevation": 178.44, "station_info": "https://explore.synopticdata.com/USGSHY851/metadata", "marker-color": "#00FFFF", "marker-size": "small", "marker-symbol": "waterfall"}, "geometry": {"type": "Point", "coordinates": [-123.889345, 47.457586]}},
{"type": "Feature", "properties": {"id": 45735, "stid": "USGSHY852", "name": "SF NOOKSACK RIVER AT SAXON BRIDGE, WA", "start_datetime": "2015-04-30T23:11:00Z", "end_datetime": "2026-01-27T15:00:00Z", "elevation": 350.0, "station_info": "https://explore.synopticdata.com/USGSHY852/metadata", "marker-color": "#00FFFF", "marker-size": "small", "marker-symbol": "waterfall"}, "geometry": {"type": "Point", "coordinates": [-122.16652, 48.67757]}},
{"type": "Feature", "properties": {"id": 45737, "stid": "USGSHY854", "name": "TAYLOR CREEK NEAR SELLECK, WA", "start_datetime": "2015-04-30T23:04:00Z", "end_datetime": "2026-01-27T15:15:00Z", "elevation": 940.0, "station_info": "https://explore.synopticdata.com/USGSHY854/metadata", "marker-color": "#00FFFF", "marker-size": "small", "marker-symbol": "waterfall"}, "geometry": {"type": "Point", "coordinates": [-121.8462, 47.38647]}},
{"type": "Feature", "properties": {"id": 45738, "stid": "USGSHY855", "name": "TOLT RIVER NEAR CARNATION, WA", "start_datetime": "2015-04-30T23:04:00Z", "end_datetime": "2026-01-27T15:00:00Z", "elevation": 348.0, "station_info": "https://explore.synopticdata.com/USGSHY855/metadata", "marker-color": "#00FFFF", "marker-size": "small", "marker-symbol": "waterfall"}, "geometry": {"type": "Point", "coordinates": [-121.824006, 47.695657]}},
{"type": "Feature", "properties": {"id": 45739, "stid": "USGSHY856", "name": "COWLITZ RIVER AT CASTLE ROCK, WA", "start_datetime": "2015-04-30T23:11:00Z", "end_datetime": "2026-01-27T15:20:00Z", "elevation": 26.2, "station_info": "https://explore.synopticdata.com/USGSHY856/metadata", "marker-color": "#00FFFF", "marker-size": "small", "marker-symbol": "waterfall"}, "geometry": {"type": "Point", "coordinates": [-122.914559, 46.274833]}},
{"type": "Feature", "properties": {"id": 45741, "stid": "USGSHY858", "name": "SULTAN RIVER BELOW DIVERSION DAM NEAR SULTAN, WA", "start_datetime": "2015-04-30T23:11:00Z", "end_datetime": "2026-01-27T15:45:00Z", "elevation": 731.6, "station_info": "https://explore.synopticdata.com/USGSHY858/metadata", "marker-color": "#00FFFF", "marker-size": "small", "marker-symbol": "waterfall"}, "geometry": {"type": "Point", "coordinates": [-121.797345, 47.959268]}},
{"type": "Feature", "properties": {"id": 45742, "stid": "USGSHY859", "name": "SF TOLT RIVER BL REGULATING BASIN NR CARNATION, WA", "start_datetime": "2015-04-30T23:04:00Z", "end_datetime": "2026-01-27T15:00:00Z", "elevation": 670.0, "station_info": "https://explore.synopticdata.com/USGSHY859/metadata", "marker-color": "#00FFFF", "marker-size": "small", "marker-symbol": "waterfall"}, "geometry": {"type": "Point", "coordinates": [-121.787338, 47.696768]}},
{"type": "Feature", "properties": {"id": 45743, "stid": "USGSHY860", "name": "MUDDY RIVER BELOW CLEAR CREEK NEAR COUGAR, WA", "start_datetime": "2015-04-30T23:11:00Z", "end_datetime": "2026-01-27T15:00:00Z", "elevation": 1032.9, "station_info": "https://explore.synopticdata.com/USGSHY860/metadata", "marker-color": "#00FFFF", "marker-size": "small", "marker-symbol": "waterfall"}, "geometry": {"type": "Point", "coordinates": [-121.99868, 46.07563]}},
{"type": "Feature", "properties": {"id": 45745, "stid": "USGSHY862", "name": "OMAK CREEK NEAR OMAK, WA", "start_datetime": "2015-04-30T23:12:00Z", "end_datetime": "2026-01-27T15:00:00Z", "elevation": 1210.6, "station_info": "https://explore.synopticdata.com/USGSHY862/metadata", "marker-color": "#00FFFF", "marker-size": "small", "marker-symbol": "waterfall"}, "geometry": {"type": "Point", "coordinates": [-119.44504, 48.36705]}},
{"type": "Feature", "properties": {"id": 45746, "stid": "USGSHY863", "name": "GREEN RIVER BELOW HOWARD A HANSON DAM, WA", "start_datetime": "2015-04-30T23:34:00Z", "end_datetime": "2026-01-27T15:15:00Z", "elevation": 990.0, "station_info": "https://explore.synopticdata.com/USGSHY863/metadata", "marker-color": "#00FFFF", "marker-size": "small", "marker-symbol": "waterfall"}, "geometry": {"type": "Point", "coordinates": [-121.797885, 47.283714]}},
{"type": "Feature", "properties": {"id": 45747, "stid": "USGSHY864", "name": "SKAGIT RIVER NEAR MOUNT VERNON, WA", "start_datetime": "2015-04-30T23:04:00Z", "end_datetime": "2026-01-27T15:45:00Z", "elevation": 16.4, "station_info": "https://explore.synopticdata.com/USGSHY864/metadata", "marker-color": "#00FFFF", "marker-size": "small", "marker-symbol": "waterfall"}, "geometry": {"type": "Point", "coordinates": [-122.335437, 48.444828]}},
{"type": "Feature", "properties": {"id": 45749, "stid": "USGSHY866", "name": "YAKIMA RIVER ABOVE AHTANUM CREEK AT UNION GAP, WA", "start_datetime": "2015-04-30T23:11:00Z", "end_datetime": "2026-01-27T15:15:00Z", "elevation": 900.0, "station_info": "https://explore.synopticdata.com/USGSHY866/metadata", "marker-color": "#00FFFF", "marker-size": "small", "marker-symbol": "waterfall"}, "geometry": {"type": "Point", "coordinates": [-120.46725, 46.53426]}},
{"type": "Feature", "properties": {"id": 45750, "stid": "USGSHY867", "name": "SOUTH PRAIRIE CREEK AT SOUTH PRAIRIE, WA", "start_datetime": "2015-04-30T23:11:00Z", "end_datetime": "2026-01-27T15:45:00Z", "elevation": 400.0, "station_info": "https://explore.synopticdata.com/USGSHY867/metadata", "marker-color": "#00FFFF", "marker-size": "small", "marker-symbol": "waterfall"}, "geometry": {"type": "Point", "coordinates": [-122.092613, 47.139546]}},
{"type": "Feature", "properties": {"id": 45752, "stid": "USGSHY869", "name": "NISQUALLY RIVER AT LA GRANDE, WA", "start_datetime": "2015-04-30T23:11:00Z", "end_datetime": "2026-01-27T15:00:00Z", "elevation": 490.0, "station_info": "https://explore.synopticdata.com/USGSHY869/metadata", "marker-color": "#00FFFF", "marker-size": "small", "marker-symbol": "waterfall"}, "geometry": {"type": "Point", "coordinates": [-122.329281, 46.83927]}},
{"type": "Feature", "properties": {"id": 45753, "stid": "USGSHY870", "name": "WHITE RIVER NEAR AUBURN, WA", "start_datetime": "2015-04-30T23:04:00Z", "end_datetime": "2026-01-27T15:00:00Z", "elevation": 75.5, "station_info": "https://explore.synopticdata.com/USGSHY870/metadata", "marker-color": "#00FFFF", "marker-size": "small", "marker-symbol": "waterfall"}, "geometry": {"type": "Point", "coordinates": [-122.229842, 47.265934]}},
{"type": "Feature", "properties": {"id": 45754, "stid": "USGSHY871", "name": "PUYALLUP RIVER AT PUYALLUP, WA", "start_datetime": "2015-04-30T23:11:00Z", "end_datetime": "2026-01-27T15:45:00Z", "elevation": 9.8, "station_info": "https://explore.synopticdata.com/USGSHY871/metadata", "marker-color": "#00FFFF", "marker-size": "small", "marker-symbol": "waterfall"}, "geometry": {"type": "Point", "coordinates": [-122.327065, 47.208434]}},
{"type": "Feature", "properties": {"id": 45755, "stid": "USGSHY872", "name": "WHITE RIVER AT R STREET NEAR AUBURN, WA", "start_datetime": "2015-04-30T23:11:00Z", "end_datetime": "2026-01-27T14:00:00Z", "elevation": 111.5, "station_info": "https://explore.synopticdata.com/USGSHY872/metadata", "marker-color": "#00FFFF", "marker-size": "small", "marker-symbol": "waterfall"}, "geometry": {"type": "Point", "coordinates": [-122.20788, 47.27479]}},
{"type": "Feature", "properties": {"id": 45756, "stid": "USGSHY873", "name": "COWLITZ RIVER BELOW MAYFIELD DAM, WA", "start_datetime": "2015-04-30T23:11:00Z", "end_datetime": "2026-01-27T15:15:00Z", "elevation": 226.6, "station_info": "https://explore.synopticdata.com/USGSHY873/metadata", "marker-color": "#00FFFF", "marker-size": "small", "marker-symbol": "waterfall"}, "geometry": {"type": "Point", "coordinates": [-122.616224, 46.510385]}},
{"type": "Feature", "properties": {"id": 45757, "stid": "USGSHY874", "name": "CLEARWATER RIVER NEAR BUCKLEY, WA", "start_datetime": "2015-04-30T23:04:00Z", "end_datetime": "2026-01-27T15:15:00Z", "elevation": 1400.0, "station_info": "https://explore.synopticdata.com/USGSHY874/metadata", "marker-color": "#00FFFF", "marker-size": "small", "marker-symbol": "waterfall"}, "geometry": {"type": "Point", "coordinates": [-121.802604, 47.127327]}},
{"type": "Feature", "properties": {"id": 45758, "stid": "USGSHY875", "name": "WILSON CREEK BELOW CORBETT DRAW NEAR ALMIRA, WA", "start_datetime": "2015-04-30T23:04:00Z", "end_datetime": "2026-01-27T15:15:00Z", "elevation": 1670.0, "station_info": "https://explore.synopticdata.com/USGSHY875/metadata", "marker-color": "#00FFFF", "marker-size": "small", "marker-symbol": "waterfall"}, "geometry": {"type": "Point", "coordinates": [-118.930567, 47.662926]}},
{"type": "Feature", "properties": {"id": 45760, "stid": "USGSHY877", "name": "GREEN RIVER NEAR AUBURN, WA", "start_datetime": "2015-04-30T23:11:00Z", "end_datetime": "2026-01-27T15:45:00Z", "elevation": 62.3, "station_info": "https://explore.synopticdata.com/USGSHY877/metadata", "marker-color": "#00FFFF", "marker-size": "small", "marker-symbol": "waterfall"}, "geometry": {"type": "Point", "coordinates": [-122.204008, 47.312323]}},
{"type": "Feature", "properties": {"id": 45762, "stid": "USGSHY879", "name": "GRANGER DRAIN AT GRANGER, WA", "start_datetime": "2015-04-30T23:11:00Z", "end_datetime": "2026-01-27T15:00:00Z", "elevation": 720.0, "station_info": "https://explore.synopticdata.com/USGSHY879/metadata", "marker-color": "#00FFFF", "marker-size": "small", "marker-symbol": "waterfall"}, "geometry": {"type": "Point", "coordinates": [-120.186995, 46.343463]}},
{"type": "Feature", "properties": {"id": 45763, "stid": "USGSHY880", "name": "CEDAR RIVER NEAR LANDSBURG, WA", "start_datetime": "2015-04-30T23:11:00Z", "end_datetime": "2026-01-27T15:45:00Z", "elevation": 565.9, "station_info": "https://explore.synopticdata.com/USGSHY880/metadata", "marker-color": "#00FFFF", "marker-size": "small", "marker-symbol": "waterfall"}, "geometry": {"type": "Point", "coordinates": [-121.95454, 47.39369]}},
{"type": "Feature", "properties": {"id": 45764, "stid": "USGSHY881", "name": "MASHEL RIVER NEAR LA GRANDE, WA", "start_datetime": "2015-04-30T23:11:00Z", "end_datetime": "2026-01-27T14:00:00Z", "elevation": 619.53, "station_info": "https://explore.synopticdata.com/USGSHY881/metadata", "marker-color": "#00FFFF", "marker-size": "small", "marker-symbol": "waterfall"}, "geometry": {"type": "Point", "coordinates": [-122.30259, 46.85674]}},
{"type": "Feature", "properties": {"id": 45765, "stid": "USGSHY882", "name": "TILTON RIVER AB BEAR CANYON CREEK NEAR CINEBAR, WA", "start_datetime": "2015-04-30T23:11:00Z", "end_datetime": "2026-01-27T15:45:00Z", "elevation": 600.0, "station_info": "https://explore.synopticdata.com/USGSHY882/metadata", "marker-color": "#00FFFF", "marker-size": "small", "marker-symbol": "waterfall"}, "geometry": {"type": "Point", "coordinates": [-122.459556, 46.595384]}},
{"type": "Feature", "properties": {"id": 45766, "stid": "USGSHY883", "name": "THUNDER CREEK NEAR NEWHALEM, WA", "start_datetime": "2015-04-30T23:11:00Z", "end_datetime": "2026-01-27T15:45:00Z", "elevation": 1220.0, "station_info": "https://explore.synopticdata.com/USGSHY883/metadata", "marker-color": "#00FFFF", "marker-size": "small", "marker-symbol": "waterfall"}, "geometry": {"type": "Point", "coordinates": [-121.072896, 48.672629]}},
{"type": "Feature", "properties": {"id": 45768, "stid": "USGSHY885", "name": "WENATCHEE RIVER AT MONITOR, WA", "start_datetime": "2015-04-30T23:11:00Z", "end_datetime": "2026-01-27T15:15:00Z", "elevation": 680.0, "station_info": "https://explore.synopticdata.com/USGSHY885/metadata", "marker-color": "#00FFFF", "marker-size": "small", "marker-symbol": "waterfall"}, "geometry": {"type": "Point", "coordinates": [-120.42449, 47.49926]}},
{"type": "Feature", "properties": {"id": 45769, "stid": "USGSHY886", "name": "CANYON CREEK NEAR AMBOY, WA", "start_datetime": "2015-04-30T23:11:00Z", "end_datetime": "2026-01-27T15:15:00Z", "elevation": 520.0, "station_info": "https://explore.synopticdata.com/USGSHY886/metadata", "marker-color": "#00FFFF", "marker-size": "small", "marker-symbol": "waterfall"}, "geometry": {"type": "Point", "coordinates": [-122.31704, 45.939834]}},
{"type": "Feature", "properties": {"id": 45771, "stid": "USGSHY888", "name": "CISPUS RIVER AB YELLOWJACKET CREEK NEAR RANDLE, WA", "start_datetime": "2015-04-30T23:11:00Z", "end_datetime": "2026-01-27T15:00:00Z", "elevation": 1260.0, "station_info": "https://explore.synopticdata.com/USGSHY888/metadata", "marker-color": "#00FFFF", "marker-size": "small", "marker-symbol": "waterfall"}, "geometry": {"type": "Point", "coordinates": [-121.84007, 46.44397]}},
{"type": "Feature", "properties": {"id": 45773, "stid": "USGSHY890", "name": "SIMILKAMEEN RIVER NEAR NIGHTHAWK, WA", "start_datetime": "2015-04-30T23:11:00Z", "end_datetime": "2026-01-27T15:15:00Z", "elevation": 1137.7, "station_info": "https://explore.synopticdata.com/USGSHY890/metadata", "marker-color": "#00FFFF", "marker-size": "small", "marker-symbol": "waterfall"}, "geometry": {"type": "Point", "coordinates": [-119.61841, 48.984601]}},
{"type": "Feature", "properties": {"id": 45774, "stid": "USGSHY891", "name": "SOUTH FORK NEWAUKUM RIVER NEAR ONALASKA, WA", "start_datetime": "2015-04-30T23:11:00Z", "end_datetime": "2026-01-27T15:15:00Z", "elevation": 557.7, "station_info": "https://explore.synopticdata.com/USGSHY891/metadata", "marker-color": "#00FFFF", "marker-size": "small", "marker-symbol": "waterfall"}, "geometry": {"type": "Point", "coordinates": [-122.685116, 46.575662]}},
{"type": "Feature", "properties": {"id": 45776, "stid": "USGSHY893", "name": "YAKIMA RIVER AT MABTON, WA", "start_datetime": "2015-04-30T23:11:00Z", "end_datetime": "2026-01-27T15:00:00Z", "elevation": 639.8, "station_info": "https://explore.synopticdata.com/USGSHY893/metadata", "marker-color": "#00FFFF", "marker-size": "small", "marker-symbol": "waterfall"}, "geometry": {"type": "Point", "coordinates": [-119.99945, 46.23121]}},
{"type": "Feature", "properties": {"id": 45777, "stid": "USGSHY894", "name": "WYNOOCHEE RIVER NEAR GRISDALE, WA", "start_datetime": "2015-04-30T23:11:00Z", "end_datetime": "2026-01-27T15:45:00Z", "elevation": 630.0, "station_info": "https://explore.synopticdata.com/USGSHY894/metadata", "marker-color": "#00FFFF", "marker-size": "small", "marker-symbol": "waterfall"}, "geometry": {"type": "Point", "coordinates": [-123.60986, 47.38034]}},
{"type": "Feature", "properties": {"id": 45778, "stid": "USGSHY895", "name": "GREENWATER RIVER AT GREENWATER, WA", "start_datetime": "2015-04-30T23:11:00Z", "end_datetime": "2026-01-27T15:45:00Z", "elevation": 1727.0, "station_info": "https://explore.synopticdata.com/USGSHY895/metadata", "marker-color": "#00FFFF", "marker-size": "small", "marker-symbol": "waterfall"}, "geometry": {"type": "Point", "coordinates": [-121.635654, 47.153441]}},
{"type": "Feature", "properties": {"id": 45780, "stid": "USGSHY897", "name": "ANTOINE CREEK AT US HWY 97 NEAR ELLISFORDE, WA", "start_datetime": "2015-04-30T23:12:00Z", "end_datetime": "2026-01-27T15:00:00Z", "elevation": 920.0, "station_info": "https://explore.synopticdata.com/USGSHY897/metadata", "marker-color": "#00FFFF", "marker-size": "small", "marker-symbol": "waterfall"}, "geometry": {"type": "Point", "coordinates": [-119.40921, 48.75927]}},
{"type": "Feature", "properties": {"id": 46579, "stid": "YGVW", "name": "YAKIMA RIVER AT EUCLID RD. BR. NEAR GRANDVIEW,WA.", "start_datetime": "2015-07-09T21:00:00Z", "end_datetime": "2026-01-27T15:30:00Z", "elevation": 630.0, "station_info": "https://explore.synopticdata.com/YGVW/metadata", "marker-color": "#00FFFF", "marker-size": "small", "marker-symbol": "waterfall"}, "geometry": {"type": "Point", "coordinates": [-119.916944, 46.217222]}},
{"type": "Feature", "properties": {"id": 46637, "stid": "YRCW", "name": "YAKIMA RIVER AT CRYSTAL SPRINGS", "start_datetime": "2015-07-09T21:05:00Z", "end_datetime": "2026-01-27T15:30:00Z", "elevation": 2421.0, "station_info": "https://explore.synopticdata.com/YRCW/metadata", "marker-color": "#00FFFF", "marker-size": "small", "marker-symbol": "waterfall"}, "geometry": {"type": "Point", "coordinates": [-121.314167, 47.308611]}},
{"type": "Feature", "properties": {"id": 46639, "stid": "SNCW", "name": "SUNNYSIDE CANAL", "start_datetime": "2015-07-09T21:05:00Z", "end_datetime": "2026-01-27T15:30:00Z", "elevation": 896.0, "station_info": "https://explore.synopticdata.com/SNCW/metadata", "marker-color": "#00FFFF", "marker-size": "small", "marker-symbol": "waterfall"}, "geometry": {"type": "Point", "coordinates": [-120.427778, 46.494444]}},
{"type": "Feature", "properties": {"id": 46656, "stid": "RBDW", "name": "YAKIMA RIVER BELOW ROZA DAM", "start_datetime": "2015-07-09T21:05:00Z", "end_datetime": "2026-01-27T15:45:00Z", "elevation": 1227.0, "station_info": "https://explore.synopticdata.com/RBDW/metadata", "marker-color": "#00FFFF", "marker-size": "small", "marker-symbol": "waterfall"}, "geometry": {"type": "Point", "coordinates": [-120.466667, 46.75]}},
{"type": "Feature", "properties": {"id": 46665, "stid": "RSCW", "name": "NEW RESERVATION CANAL", "start_datetime": "2015-07-09T21:05:00Z", "end_datetime": "2026-01-27T15:30:00Z", "elevation": 938.0, "station_info": "https://explore.synopticdata.com/RSCW/metadata", "marker-color": "#00FFFF", "marker-size": "small", "marker-symbol": "waterfall"}, "geometry": {"type": "Point", "coordinates": [-120.477778, 46.519444]}},
{"type": "Feature", "properties": {"id": 46667, "stid": "ROZW", "name": "ROZA CANAL AT 11.0 MILE", "start_datetime": "2015-07-09T21:05:00Z", "end_datetime": "2026-01-27T15:30:00Z", "elevation": 1047.0, "station_info": "https://explore.synopticdata.com/ROZW/metadata", "marker-color": "#00FFFF", "marker-size": "small", "marker-symbol": "waterfall"}, "geometry": {"type": "Point", "coordinates": [-120.483333, 46.616667]}},
{"type": "Feature", "properties": {"id": 46673, "stid": "NRYW", "name": "NACHES RIVER NEAR YAKIMA, WA", "start_datetime": "2023-11-01T12:00:00Z", "end_datetime": "2026-01-27T15:30:00Z", "elevation": 1076.0, "station_info": "https://explore.synopticdata.com/NRYW/metadata", "marker-color": "#00FFFF", "marker-size": "small", "marker-symbol": "waterfall"}, "geometry": {"type": "Point", "coordinates": [-120.519444, 46.628333]}},
{"type": "Feature", "properties": {"id": 46679, "stid": "KAC", "name": "KACHESS RESERVOIR,RIVER AND WEATHER STATION", "start_datetime": "2015-07-09T21:05:00Z", "end_datetime": "2026-01-27T15:30:00Z", "elevation": 2254.0, "station_info": "https://explore.synopticdata.com/KAC/metadata", "marker-color": "#00FFFF", "marker-size": "small", "marker-symbol": "waterfall"}, "geometry": {"type": "Point", "coordinates": [-121.204444, 47.264722]}},
{"type": "Feature", "properties": {"id": 46688, "stid": "ELNW", "name": "YAKIMA RIVER NEAR ELLENSBURG ,WA.", "start_datetime": "2015-07-09T21:05:00Z", "end_datetime": "2026-01-27T15:30:00Z", "elevation": 1535.0, "station_info": "https://explore.synopticdata.com/ELNW/metadata", "marker-color": "#00FFFF", "marker-size": "small", "marker-symbol": "waterfall"}, "geometry": {"type": "Point", "coordinates": [-120.6, 47.0]}},
{"type": "Feature", "properties": {"id": 46690, "stid": "NSCW", "name": "NACHES SELAH CANAL", "start_datetime": "2015-07-09T21:05:00Z", "end_datetime": "2026-01-27T15:30:00Z", "elevation": 1550.0, "station_info": "https://explore.synopticdata.com/NSCW/metadata", "marker-color": "#00FFFF", "marker-size": "small", "marker-symbol": "waterfall"}, "geometry": {"type": "Point", "coordinates": [-120.768889, 46.746667]}},
{"type": "Feature", "properties": {"id": 46704, "stid": "SOUW", "name": "SOUTH NACHES CHANNEL COMPANY CANAL", "start_datetime": "2015-07-09T21:06:00Z", "end_datetime": "2026-01-27T15:30:00Z", "elevation": 1456.0, "station_info": "https://explore.synopticdata.com/SOUW/metadata", "marker-color": "#00FFFF", "marker-size": "small", "marker-symbol": "waterfall"}, "geometry": {"type": "Point", "coordinates": [-120.716389, 46.733056]}},
{"type": "Feature", "properties": {"id": 46707, "stid": "TNAW", "name": "TEANAWAY RIVER AT FORKS NEAR CLE ELUM, WA", "start_datetime": "2015-07-09T21:05:00Z", "end_datetime": "2026-01-22T03:30:00Z", "elevation": 2143.0, "station_info": "https://explore.synopticdata.com/TNAW/metadata", "marker-color": "#00FFFF", "marker-size": "small", "marker-symbol": "waterfall"}, "geometry": {"type": "Point", "coordinates": [-120.861111, 47.246389]}},